current_date,current_time,daytime,daytime_class,dayhour,dayquarter,weekday,is_workingday,is_holiday,starting_stop_time,line,number_of_stops,direction,stop_id,stop_name,stop_sequence,arrival_delay_category,departure_delay_category,arrival_delay_seconds,departure_delay_seconds
2024-04-01,13:00:51,noon,2,13,1,Monday,1,1,12:51:00,22,26,Kattenturm,9014023,Bremen Kurfürstenallee,14,0,0,0,0
2024-04-01,13:00:51,noon,2,13,1,Monday,1,1,12:51:00,22,26,Kattenturm,9013715,Bremen Arensburgstraße,15,0,0,0,0
2024-04-01,13:00:51,noon,2,13,1,Monday,1,1,12:51:00,22,26,Universität-Ost,9013999,Bremen Kattenturm-Mitte,0,0,0,0,58
2024-04-01,13:00:51,noon,2,13,1,Monday,1,1,12:51:00,22,26,Universität-Ost,9013712,Bremen Anna-Stiegler-Straße,1,1,1,113,113
2024-04-01,13:00:51,noon,2,13,1,Monday,1,1,12:51:00,22,26,Universität-Ost,9013799,Bremen Busestraße,16,1,1,83,83
2024-04-01,13:00:51,noon,2,13,1,Monday,1,1,12:51:00,22,26,Universität-Ost,9014022,Bremen Kulenkampffallee,17,1,1,113,113
2024-04-01,13:00:51,noon,2,13,1,Monday,1,1,12:24:00,94,48,Marßel,9082643,Schwanewede Am Spreeken,0,0,0,0,39
2024-04-01,13:00:51,noon,2,13,1,Monday,1,1,12:24:00,94,48,Marßel,9082650,Schwanewede Landhaus Schwanewede,1,0,0,26,26
2024-04-01,13:00:51,noon,2,13,1,Monday,1,1,12:24:00,94,48,Marßel,9082646,,2,0,0,7,7
2024-04-01,13:00:51,noon,2,13,1,Monday,1,1,12:24:00,94,48,Marßel,9082665,Schwanewede Molkereiweg,3,0,0,-3,8
2024-04-01,13:00:51,noon,2,13,1,Monday,1,1,12:24:00,94,48,Marßel,9082667,,4,0,0,18,19
2024-04-01,13:00:51,noon,2,13,1,Monday,1,1,12:24:00,94,48,Marßel,9082654,Schwanewede Hospitalstraße,5,0,0,44,55
2024-04-01,13:00:51,noon,2,13,1,Monday,1,1,12:24:00,94,48,Marßel,9082648,Schwanewede Eichengrund,6,0,0,33,34
2024-04-01,13:00:51,noon,2,13,1,Monday,1,1,12:24:00,94,48,Marßel,9082647,Schwanewede Dreienkamp,7,0,0,4,24
2024-04-01,13:00:51,noon,2,13,1,Monday,1,1,12:24:00,94,48,Marßel,9082642,Schwanewede Am Markt,8,1,1,61,61
2024-04-01,13:00:51,noon,2,13,1,Monday,1,1,12:24:00,94,48,Marßel,9082657,Schwanewede Insterburger Weg,9,0,1,57,68
2024-04-01,13:00:51,noon,2,13,1,Monday,1,1,12:24:00,94,48,Marßel,9082644,,10,0,1,55,64
2024-04-01,13:00:51,noon,2,13,1,Monday,1,1,12:24:00,94,48,Marßel,9014136,Bremen Rastenburger Straße,11,0,1,41,81
2024-04-01,13:00:51,noon,2,13,1,Monday,1,1,12:24:00,94,48,Marßel,9013957,Bremen Hohenbuchener Straße,12,1,1,64,74
2024-04-01,13:00:51,noon,2,13,1,Monday,1,1,12:24:00,94,48,Marßel,9014150,Bremen Ringofenstraße,13,0,1,59,89
2024-04-01,13:00:51,noon,2,13,1,Monday,1,1,12:24:00,94,48,Marßel,9013929,Bremen Hegeweg,14,0,0,59,59
2024-04-01,13:00:51,noon,2,13,1,Monday,1,1,12:24:00,94,48,Marßel,9013735,Bremen Bahnhof Blumenthal,19,0,0,3,0
2024-04-01,13:00:51,noon,2,13,1,Monday,1,1,12:24:00,94,48,Marßel,9014056,Bremen Margaretenallee,21,0,0,-30,-30
2024-04-01,13:00:51,noon,2,13,1,Monday,1,1,12:24:00,94,48,Marßel,9013781,Bremen Bremer Vulkan,22,0,0,0,0
2024-04-01,13:00:51,noon,2,13,1,Monday,1,1,12:06:00,94,48,Schwanewede-Nord,9013936,Bremen Marßel,0,0,0,0,-47
2024-04-01,13:00:51,noon,2,13,1,Monday,1,1,12:06:00,94,48,Schwanewede-Nord,9013937,Bremen Helsingborger Straße,1,0,0,-62,-42
2024-04-01,13:00:51,noon,2,13,1,Monday,1,1,12:06:00,94,48,Schwanewede-Nord,9014248,Bremen Upsalastraße,2,0,0,-37,-24
2024-04-01,13:00:51,noon,2,13,1,Monday,1,1,12:06:00,94,48,Schwanewede-Nord,9014219,Bremen Stockholmer Straße,3,0,0,-49,-34
2024-04-01,13:00:51,noon,2,13,1,Monday,1,1,12:06:00,94,48,Schwanewede-Nord,9013796,Bremen Burgdammer Ring,4,0,0,-22,-13
2024-04-01,13:00:51,noon,2,13,1,Monday,1,1,12:06:00,94,48,Schwanewede-Nord,9013753,Bremen Beckers Barg,5,0,0,-36,-36
2024-04-01,13:00:51,noon,2,13,1,Monday,1,1,12:06:00,94,48,Schwanewede-Nord,9014204,Bremen Stader Landstraße,6,0,0,-42,-28
2024-04-01,13:00:51,noon,2,13,1,Monday,1,1,12:06:00,94,48,Schwanewede-Nord,9013736,Bremen-Burg(Bus),7,0,0,13,32
2024-04-01,13:00:51,noon,2,13,1,Monday,1,1,12:06:00,94,48,Schwanewede-Nord,9014204,Bremen Stader Landstraße,8,0,1,53,99
2024-04-01,13:00:51,noon,2,13,1,Monday,1,1,12:06:00,94,48,Schwanewede-Nord,9014214,Bremen Stehnckenshoff,9,1,1,85,85
2024-04-01,13:00:51,noon,2,13,1,Monday,1,1,12:06:00,94,48,Schwanewede-Nord,9014322,Bremen-Lesum Kirche,10,1,1,82,97
2024-04-01,13:00:51,noon,2,13,1,Monday,1,1,12:06:00,94,48,Schwanewede-Nord,9013725,Bremen Auf dem Pasch,11,1,1,77,77
2024-04-01,13:00:51,noon,2,13,1,Monday,1,1,12:06:00,94,48,Schwanewede-Nord,9014012,Bremen Knoops Park,12,1,1,72,72
2024-04-01,13:00:51,noon,2,13,1,Monday,1,1,12:06:00,94,48,Schwanewede-Nord,9013695,Bremen Am Kapellenberg,13,1,1,70,78
2024-04-01,13:00:51,noon,2,13,1,Monday,1,1,12:06:00,94,48,Schwanewede-Nord,9014146,Bremen Richthofenstraße,14,0,1,52,62
2024-04-01,13:00:51,noon,2,13,1,Monday,1,1,12:06:00,94,48,Schwanewede-Nord,9013862,Bremen Finkenschlag,15,0,0,42,54
2024-04-01,13:00:51,noon,2,13,1,Monday,1,1,12:06:00,94,48,Schwanewede-Nord,9014229,Bremen Taunusstraße,16,0,0,34,44
2024-04-01,13:00:51,noon,2,13,1,Monday,1,1,12:06:00,94,48,Schwanewede-Nord,9014185,Bremen Seefahrtstraße,17,0,0,25,38
2024-04-01,13:00:51,noon,2,13,1,Monday,1,1,12:06:00,94,48,Schwanewede-Nord,9014181,Bremen Schönebecker Straße,18,0,0,37,49
2024-04-01,13:00:51,noon,2,13,1,Monday,1,1,12:06:00,94,48,Schwanewede-Nord,9013904,Bremen Grohn-Markt,19,0,0,35,40
2024-04-01,13:00:51,noon,2,13,1,Monday,1,1,12:06:00,94,48,Schwanewede-Nord,9013747,Bremen Bahnhof Vegesack,20,0,0,-79,-50
2024-04-01,13:00:51,noon,2,13,1,Monday,1,1,12:06:00,94,48,Schwanewede-Nord,9013893,Bremen Gerhard-Rohlfs-Straße,21,0,0,-31,-13
2024-04-01,13:00:51,noon,2,13,1,Monday,1,1,12:06:00,94,48,Schwanewede-Nord,9013906,Bremen Gustav-Heinemann-Bürgerhaus,22,0,0,-48,-32
2024-04-01,13:00:51,noon,2,13,1,Monday,1,1,12:06:00,94,48,Schwanewede-Nord,9013883,Bremen Fährgrund,23,0,0,-39,-24
2024-04-01,13:00:51,noon,2,13,1,Monday,1,1,12:06:00,94,48,Schwanewede-Nord,9014254,Bremen Vereinsstraße,24,0,0,-36,-21
2024-04-01,13:00:51,noon,2,13,1,Monday,1,1,12:06:00,94,48,Schwanewede-Nord,9013781,Bremen Bremer Vulkan,25,0,0,-47,-28
2024-04-01,13:00:51,noon,2,13,1,Monday,1,1,12:06:00,94,48,Schwanewede-Nord,9014056,Bremen Margaretenallee,26,0,0,-43,-34
2024-04-01,13:00:51,noon,2,13,1,Monday,1,1,12:06:00,94,48,Schwanewede-Nord,9014305,Bremen Wätjens Park,27,0,0,-42,-26
2024-04-01,13:00:51,noon,2,13,1,Monday,1,1,12:06:00,94,48,Schwanewede-Nord,9013735,Bremen Bahnhof Blumenthal,28,0,0,-68,4
2024-04-01,13:00:51,noon,2,13,1,Monday,1,1,12:06:00,94,48,Schwanewede-Nord,9014060,Bremen Martin-Luther-Straße,29,0,0,-6,-6
2024-04-01,13:00:51,noon,2,13,1,Monday,1,1,12:06:00,94,48,Schwanewede-Nord,9013769,Bremen Bockhorner Weg,30,0,0,-5,14
2024-04-01,13:00:51,noon,2,13,1,Monday,1,1,12:06:00,94,48,Schwanewede-Nord,9013929,Bremen Hegeweg,33,0,0,-16,-16
2024-04-01,13:00:51,noon,2,13,1,Monday,1,1,12:06:00,94,48,Schwanewede-Nord,9014150,Bremen Ringofenstraße,34,0,0,14,14
2024-04-01,13:00:51,noon,2,13,1,Monday,1,1,12:06:00,94,48,Schwanewede-Nord,9082657,Schwanewede Insterburger Weg,38,0,0,-16,-16
2024-04-01,13:00:51,noon,2,13,1,Monday,1,1,12:06:00,94,48,Schwanewede-Nord,9082642,Schwanewede Am Markt,39,0,0,14,14
2024-04-01,13:00:51,noon,2,13,1,Monday,1,1,12:26:00,94,48,Marßel,9013769,Bremen Bockhorner Weg,0,0,0,0,-26
2024-04-01,13:00:51,noon,2,13,1,Monday,1,1,12:26:00,94,48,Marßel,9014060,Bremen Martin-Luther-Straße,1,0,0,-22,-17
2024-04-01,13:00:51,noon,2,13,1,Monday,1,1,12:26:00,94,48,Marßel,9013735,Bremen Bahnhof Blumenthal,2,0,0,-7,-178
2024-04-01,13:00:51,noon,2,13,1,Monday,1,1,12:26:00,94,48,Marßel,9014305,Bremen Wätjens Park,3,0,0,-153,-38
2024-04-01,13:00:51,noon,2,13,1,Monday,1,1,12:26:00,94,48,Marßel,9014056,Bremen Margaretenallee,4,0,0,-11,7
2024-04-01,13:00:51,noon,2,13,1,Monday,1,1,12:26:00,94,48,Marßel,9013781,Bremen Bremer Vulkan,5,0,0,22,22
2024-04-01,13:00:51,noon,2,13,1,Monday,1,1,12:26:00,94,48,Marßel,9014254,Bremen Vereinsstraße,6,0,0,15,31
2024-04-01,13:00:51,noon,2,13,1,Monday,1,1,12:26:00,94,48,Marßel,9013883,Bremen Fährgrund,7,0,0,28,44
2024-04-01,13:00:51,noon,2,13,1,Monday,1,1,12:26:00,94,48,Marßel,9013906,Bremen Gustav-Heinemann-Bürgerhaus,8,0,1,54,85
2024-04-01,13:00:51,noon,2,13,1,Monday,1,1,12:26:00,94,48,Marßel,9013747,Bremen Bahnhof Vegesack,10,0,0,49,0
2024-04-01,13:00:51,noon,2,13,1,Monday,1,1,12:26:00,94,48,Marßel,9014181,Bremen Schönebecker Straße,12,0,0,29,29
2024-04-01,13:00:51,noon,2,13,1,Monday,1,1,12:26:00,94,48,Marßel,9014229,Bremen Taunusstraße,14,1,1,64,64
2024-04-01,13:00:51,noon,2,13,1,Monday,1,1,12:26:00,94,48,Marßel,9013862,Bremen Finkenschlag,15,0,0,26,26
2024-04-01,13:00:51,noon,2,13,1,Monday,1,1,12:26:00,94,48,Marßel,9014146,Bremen Richthofenstraße,16,0,0,-12,0
2024-04-01,13:00:51,noon,2,13,1,Monday,1,1,12:54:00,94,48,Marßel,9082643,Schwanewede Am Spreeken,0,0,0,0,0
2024-04-01,13:00:51,noon,2,13,1,Monday,1,1,12:54:00,94,48,Marßel,9082647,Schwanewede Dreienkamp,7,0,0,-30,-30
2024-04-01,13:00:51,noon,2,13,1,Monday,1,1,12:54:00,94,48,Marßel,9082642,Schwanewede Am Markt,8,0,0,0,0
2024-04-01,13:00:51,noon,2,13,1,Monday,1,1,12:54:00,94,48,Marßel,9014056,Bremen Margaretenallee,21,0,0,-30,-30
2024-04-01,13:00:51,noon,2,13,1,Monday,1,1,12:54:00,94,48,Marßel,9013781,Bremen Bremer Vulkan,22,0,0,0,0
2024-04-01,13:00:51,noon,2,13,1,Monday,1,1,12:56:00,94,48,Marßel,9013769,Bremen Bockhorner Weg,0,0,0,0,0
2024-04-01,13:00:51,noon,2,13,1,Monday,1,1,12:56:00,94,48,Marßel,9014056,Bremen Margaretenallee,4,0,0,-30,-30
2024-04-01,13:00:51,noon,2,13,1,Monday,1,1,12:56:00,94,48,Marßel,9013781,Bremen Bremer Vulkan,5,0,0,0,0
2024-04-01,13:00:51,noon,2,13,1,Monday,1,1,12:36:00,94,48,Schwanewede-Nord,9013936,Bremen Marßel,0,0,0,0,0
2024-04-01,13:00:51,noon,2,13,1,Monday,1,1,12:36:00,94,48,Schwanewede-Nord,9014229,Bremen Taunusstraße,16,1,1,89,89
2024-04-01,13:00:51,noon,2,13,1,Monday,1,1,12:36:00,94,48,Schwanewede-Nord,9013747,Bremen Bahnhof Vegesack,20,0,0,28,0
2024-04-01,13:00:51,noon,2,13,1,Monday,1,1,12:36:00,94,48,Schwanewede-Nord,9013893,Bremen Gerhard-Rohlfs-Straße,21,0,0,8,8
2024-04-01,13:00:51,noon,2,13,1,Monday,1,1,12:36:00,94,48,Schwanewede-Nord,9013735,Bremen Bahnhof Blumenthal,28,0,0,8,0
2024-04-01,13:00:51,noon,2,13,1,Monday,1,1,12:36:00,94,48,Schwanewede-Nord,9013929,Bremen Hegeweg,33,0,0,-30,-30
2024-04-01,13:00:51,noon,2,13,1,Monday,1,1,12:36:00,94,48,Schwanewede-Nord,9014150,Bremen Ringofenstraße,34,0,0,0,0
2024-04-01,13:00:51,noon,2,13,1,Monday,1,1,12:36:00,94,48,Schwanewede-Nord,9082657,Schwanewede Insterburger Weg,38,0,0,-30,-30
2024-04-01,13:00:51,noon,2,13,1,Monday,1,1,12:36:00,94,48,Schwanewede-Nord,9082642,Schwanewede Am Markt,39,0,0,0,0
2024-04-01,13:00:51,noon,2,13,1,Monday,1,1,12:41:00,2,29,Gröpelingen,9014184,Bremen Sebaldsbrück (Bus+Tram),0,0,0,0,0
2024-04-01,13:00:51,noon,2,13,1,Monday,1,1,12:21:00,2,29,Gröpelingen,9014184,Bremen Sebaldsbrück (Bus+Tram),0,0,0,0,0
2024-04-01,13:00:51,noon,2,13,1,Monday,1,1,12:21:00,2,29,Gröpelingen,9014171,Bremen Schloßparkstraße,1,0,0,31,31
2024-04-01,13:00:51,noon,2,13,1,Monday,1,1,12:21:00,2,29,Gröpelingen,9014238,Bremen Trinidadstraße,2,0,0,1,1
2024-04-01,13:00:51,noon,2,13,1,Monday,1,1,12:21:00,2,29,Gröpelingen,9013744,Bremen Bahnhof Sebaldsbrück,3,0,0,4,4
2024-04-01,13:00:51,noon,2,13,1,Monday,1,1,12:21:00,2,29,Gröpelingen,9013884,Bremen Föhrenstraße,4,0,0,40,40
2024-04-01,13:00:51,noon,2,13,1,Monday,1,1,12:21:00,2,29,Gröpelingen,9013758,Bremen Bennigsenstraße,7,1,1,75,136
2024-04-01,13:00:51,noon,2,13,1,Monday,1,1,12:21:00,2,29,Gröpelingen,9013694,Bremen Am Hulsberg,9,1,1,96,96
2024-04-01,13:00:51,noon,2,13,1,Monday,1,1,12:21:00,2,29,Gröpelingen,9014193,Bremen Sielwall,12,1,1,126,126
2024-04-01,13:00:51,noon,2,13,1,Monday,1,1,12:21:00,2,29,Gröpelingen,9013830,Bremen Domsheide,15,1,1,97,97
2024-04-01,13:00:51,noon,2,13,1,Monday,1,1,12:21:00,2,29,Gröpelingen,9014135,Bremen Radio Bremen/VHS,18,1,1,81,81
2024-04-01,13:00:51,noon,2,13,1,Monday,1,1,12:21:00,2,29,Gröpelingen,9014041,Bremen Lloydstraße,20,1,1,92,122
2024-04-01,13:00:51,noon,2,13,1,Monday,1,1,12:21:00,2,29,Gröpelingen,9013919,Bremen Hansestraße,22,1,1,157,157
2024-04-01,13:00:51,noon,2,13,1,Monday,1,1,12:34:00,2,29,Sebaldsbrück,9013905,Bremen Gröpelingen,0,0,0,0,0
2024-04-01,13:00:51,noon,2,13,1,Monday,1,1,12:34:00,2,29,Sebaldsbrück,9014266,Bremen Waller Friedhof,4,0,0,11,41
2024-04-01,13:00:51,noon,2,13,1,Monday,1,1,12:34:00,2,29,Sebaldsbrück,9013907,Bremen Gustavstraße,7,1,1,77,77
2024-04-01,13:00:51,noon,2,13,1,Monday,1,1,12:34:00,2,29,Sebaldsbrück,9014251,Bremen Utbremer Straße,8,1,1,67,67
2024-04-01,13:00:51,noon,2,13,1,Monday,1,1,12:34:00,2,29,Sebaldsbrück,9014271,Bremen Wartburgstraße,9,1,1,105,105
2024-04-01,13:00:51,noon,2,13,1,Monday,1,1,12:34:00,2,29,Sebaldsbrück,9013912,Bremen Haferkamp,11,1,1,71,71
2024-04-01,13:00:51,noon,2,13,1,Monday,1,1,12:34:00,2,29,Sebaldsbrück,9014041,Bremen Lloydstraße,12,1,1,77,77
2024-04-01,13:00:51,noon,2,13,1,Monday,1,1,12:34:00,2,29,Sebaldsbrück,9013832,Bremen Doventor,13,1,1,92,122
2024-04-01,13:00:51,noon,2,13,1,Monday,1,1,12:34:00,2,29,Sebaldsbrück,9014135,Bremen Radio Bremen/VHS,14,1,1,159,159
2024-04-01,13:00:51,noon,2,13,1,Monday,1,1,12:34:00,2,29,Sebaldsbrück,9013680,Bremen Am Brill (Hutfilter-/Obernstraße),15,1,1,110,110
2024-04-01,13:00:51,noon,2,13,1,Monday,1,1,12:34:00,2,29,Sebaldsbrück,9014103,Bremen Obernstraße,16,1,1,112,112
2024-04-01,13:00:51,noon,2,13,1,Monday,1,1,12:34:00,2,29,Sebaldsbrück,9013830,Bremen Domsheide,17,1,0,77,47
2024-04-01,13:00:51,noon,2,13,1,Monday,1,1,12:34:00,2,29,Sebaldsbrück,9014234,Bremen Theater am Goetheplatz,18,0,0,49,49
2024-04-01,13:00:51,noon,2,13,1,Monday,1,1,12:14:00,2,29,Sebaldsbrück,9013905,Bremen Gröpelingen,0,0,0,0,0
2024-04-01,13:00:51,noon,2,13,1,Monday,1,1,12:14:00,2,29,Sebaldsbrück,9014038,Bremen Lindenhofstraße,1,0,0,29,29
2024-04-01,13:00:51,noon,2,13,1,Monday,1,1,12:14:00,2,29,Sebaldsbrück,9013674,Bremen Altenescher Straße,3,1,1,70,70
2024-04-01,13:00:51,noon,2,13,1,Monday,1,1,12:14:00,2,29,Sebaldsbrück,9013907,Bremen Gustavstraße,7,1,1,103,103
2024-04-01,13:00:51,noon,2,13,1,Monday,1,1,12:14:00,2,29,Sebaldsbrück,9014251,Bremen Utbremer Straße,8,1,1,139,139
2024-04-01,13:00:51,noon,2,13,1,Monday,1,1,12:14:00,2,29,Sebaldsbrück,9013912,Bremen Haferkamp,11,1,1,78,78
2024-04-01,13:00:51,noon,2,13,1,Monday,1,1,12:14:00,2,29,Sebaldsbrück,9014041,Bremen Lloydstraße,12,1,1,79,79
2024-04-01,13:00:51,noon,2,13,1,Monday,1,1,12:14:00,2,29,Sebaldsbrück,9013832,Bremen Doventor,13,1,1,108,108
2024-04-01,13:00:51,noon,2,13,1,Monday,1,1,12:14:00,2,29,Sebaldsbrück,9014135,Bremen Radio Bremen/VHS,14,1,1,149,149
2024-04-01,13:00:51,noon,2,13,1,Monday,1,1,12:14:00,2,29,Sebaldsbrück,9013830,Bremen Domsheide,17,1,1,149,119
2024-04-01,13:00:51,noon,2,13,1,Monday,1,1,12:14:00,2,29,Sebaldsbrück,9014201,Bremen St.-Jürgen-Straße,22,1,1,84,84
2024-04-01,13:00:51,noon,2,13,1,Monday,1,1,12:14:00,2,29,Sebaldsbrück,9013694,Bremen Am Hulsberg,23,1,1,117,117
2024-04-01,13:00:51,noon,2,13,1,Monday,1,1,12:14:00,2,29,Sebaldsbrück,9013754,Bremen Bei den Drei Pfählen,24,1,1,125,125
2024-04-01,13:00:51,noon,2,13,1,Monday,1,1,12:14:00,2,29,Sebaldsbrück,9013758,Bremen Bennigsenstraße,25,1,1,131,131
2024-04-01,13:00:51,noon,2,13,1,Monday,1,1,12:14:00,2,29,Sebaldsbrück,9014046,Bremen Ludwig-Quidde-Straße,26,1,1,143,143
2024-04-01,13:00:51,noon,2,13,1,Monday,1,1,12:14:00,2,29,Sebaldsbrück,9013884,Bremen Föhrenstraße,28,1,1,119,119
2024-04-01,13:00:51,noon,2,13,1,Monday,1,1,12:54:00,2,29,Sebaldsbrück,9013905,Bremen Gröpelingen,0,0,0,0,0
2024-04-01,13:00:51,noon,2,13,1,Monday,1,1,12:22:00,1,44,Bf Mahndorf,9014155,Bremen Roland-Center,0,0,0,0,0
2024-04-01,13:00:51,noon,2,13,1,Monday,1,1,12:22:00,1,44,Bf Mahndorf,9013836,Bremen Duckwitzstraße,4,0,0,33,33
2024-04-01,13:00:51,noon,2,13,1,Monday,1,1,12:22:00,1,44,Bf Mahndorf,9014122,Bremen Pappelstraße,6,1,1,71,71
2024-04-01,13:00:51,noon,2,13,1,Monday,1,1,12:22:00,1,44,Bf Mahndorf,9013679,Bremen Am Brill (Bgm.-Smidt-Straße),9,0,1,30,91
2024-04-01,13:00:51,noon,2,13,1,Monday,1,1,12:22:00,1,44,Bf Mahndorf,9013925,Bremen Hauptbahnhof,11,1,1,63,66
2024-04-01,13:00:51,noon,2,13,1,Monday,1,1,12:22:00,1,44,Bf Mahndorf,9014124,Bremen Parkstraße,14,1,1,97,97
2024-04-01,13:00:51,noon,2,13,1,Monday,1,1,12:22:00,1,44,Bf Mahndorf,9014001,Bremen Kirchbachstraße,18,1,1,101,192
2024-04-01,13:00:51,noon,2,13,1,Monday,1,1,12:22:00,1,44,Bf Mahndorf,9013806,Bremen Carl-Goerdeler-Straße,25,1,1,162,162
2024-04-01,13:00:51,noon,2,13,1,Monday,1,1,12:22:00,1,44,Bf Mahndorf,9013823,Bremen Dietrich-Bonhoeffer-Straße,26,1,1,192,192
2024-04-01,13:00:51,noon,2,13,1,Monday,1,1,12:42:00,1,44,Bf Mahndorf,9014155,Bremen Roland-Center,0,0,0,0,0
2024-04-01,13:00:51,noon,2,13,1,Monday,1,1,12:42:00,1,44,Bf Mahndorf,9014093,Bremen Neuenlander Straße,5,0,0,30,30
2024-04-01,13:00:51,noon,2,13,1,Monday,1,1,12:42:00,1,44,Bf Mahndorf,9014122,Bremen Pappelstraße,6,1,1,75,75
2024-04-01,13:00:51,noon,2,13,1,Monday,1,1,12:42:00,1,44,Bf Mahndorf,9013925,Bremen Hauptbahnhof,11,1,0,75,0
2024-04-01,13:00:51,noon,2,13,1,Monday,1,1,12:42:00,1,44,Bf Mahndorf,9013806,Bremen Carl-Goerdeler-Straße,25,0,0,-30,-30
2024-04-01,13:00:51,noon,2,13,1,Monday,1,1,12:42:00,1,44,Bf Mahndorf,9013823,Bremen Dietrich-Bonhoeffer-Straße,26,0,0,0,0
2024-04-01,13:00:51,noon,2,13,1,Monday,1,1,12:58:00,1,44,Huchting,9013765,Bremen Bf Mahndorf,0,0,0,0,0
2024-04-01,13:00:51,noon,2,13,1,Monday,1,1,11:58:00,1,44,Huchting,9013765,Bremen Bf Mahndorf,0,0,0,0,0
2024-04-01,13:00:51,noon,2,13,1,Monday,1,1,11:58:00,1,44,Huchting,9014231,Bremen Tenever-Zentrum,6,0,0,-29,0
2024-04-01,13:00:51,noon,2,13,1,Monday,1,1,11:58:00,1,44,Huchting,9014179,Bremen Schweizer Eck,9,0,0,-41,0
2024-04-01,13:00:51,noon,2,13,1,Monday,1,1,11:58:00,1,44,Huchting,9013806,Bremen Carl-Goerdeler-Straße,18,0,0,35,35
2024-04-01,13:00:51,noon,2,13,1,Monday,1,1,11:58:00,1,44,Huchting,9014295,Bremen Wilhelm-Leuschner-Straße,20,0,1,44,74
2024-04-01,13:00:51,noon,2,13,1,Monday,1,1,11:58:00,1,44,Huchting,9013989,Bremen Julius-Brecht-Allee,22,1,1,60,60
2024-04-01,13:00:51,noon,2,13,1,Monday,1,1,11:58:00,1,44,Huchting,9013750,Bremen Barbarossastraße,23,1,1,87,87
2024-04-01,13:00:51,noon,2,13,1,Monday,1,1,11:58:00,1,44,Huchting,9014023,Bremen Kurfürstenallee,24,1,1,92,121
2024-04-01,13:00:51,noon,2,13,1,Monday,1,1,11:58:00,1,44,Huchting,9014001,Bremen Kirchbachstraße,25,1,1,185,185
2024-04-01,13:00:51,noon,2,13,1,Monday,1,1,11:58:00,1,44,Huchting,9014141,Bremen Rembertistraße,31,1,1,150,150
2024-04-01,13:00:51,noon,2,13,1,Monday,1,1,11:58:00,1,44,Huchting,9013925,Bremen Hauptbahnhof,32,1,1,93,97
2024-04-01,13:00:51,noon,2,13,1,Monday,1,1,11:58:00,1,44,Huchting,9013679,Bremen Am Brill (Bgm.-Smidt-Straße),34,1,1,85,85
2024-04-01,13:00:51,noon,2,13,1,Monday,1,1,11:58:00,1,44,Huchting,9014287,Bremen Westerstraße,35,1,1,120,120
2024-04-01,13:00:51,noon,2,13,1,Monday,1,1,11:58:00,1,44,Huchting,9013954,Bremen Hochschule Bremen,36,1,1,155,155
2024-04-01,13:00:51,noon,2,13,1,Monday,1,1,11:58:00,1,44,Huchting,9014122,Bremen Pappelstraße,37,1,1,185,185
2024-04-01,13:00:51,noon,2,13,1,Monday,1,1,11:58:00,1,44,Huchting,9014093,Bremen Neuenlander Straße,38,1,1,214,214
2024-04-01,13:00:51,noon,2,13,1,Monday,1,1,11:58:00,1,44,Huchting,9014155,Bremen Roland-Center,43,1,0,147,0
2024-04-01,13:00:51,noon,2,13,1,Monday,1,1,12:02:00,1,44,Bf Mahndorf,9014155,Bremen Roland-Center,0,0,0,0,0
2024-04-01,13:00:51,noon,2,13,1,Monday,1,1,12:02:00,1,44,Bf Mahndorf,9014093,Bremen Neuenlander Straße,5,0,0,33,33
2024-04-01,13:00:51,noon,2,13,1,Monday,1,1,12:02:00,1,44,Bf Mahndorf,9014122,Bremen Pappelstraße,6,1,1,81,81
2024-04-01,13:00:51,noon,2,13,1,Monday,1,1,12:02:00,1,44,Bf Mahndorf,9013679,Bremen Am Brill (Bgm.-Smidt-Straße),9,0,0,52,52
2024-04-01,13:00:51,noon,2,13,1,Monday,1,1,12:02:00,1,44,Bf Mahndorf,9013925,Bremen Hauptbahnhof,11,0,0,38,0
2024-04-01,13:00:51,noon,2,13,1,Monday,1,1,12:02:00,1,44,Bf Mahndorf,9013683,Bremen Am Dobben,13,0,0,44,44
2024-04-01,13:00:51,noon,2,13,1,Monday,1,1,12:02:00,1,44,Bf Mahndorf,9013964,Bremen Hollerallee,15,1,1,82,82
2024-04-01,13:00:51,noon,2,13,1,Monday,1,1,12:02:00,1,44,Bf Mahndorf,9014001,Bremen Kirchbachstraße,18,1,1,63,124
2024-04-01,13:00:51,noon,2,13,1,Monday,1,1,12:02:00,1,44,Bf Mahndorf,9014023,Bremen Kurfürstenallee,19,1,1,142,172
2024-04-01,13:00:51,noon,2,13,1,Monday,1,1,12:02:00,1,44,Bf Mahndorf,9013806,Bremen Carl-Goerdeler-Straße,25,1,1,142,142
2024-04-01,13:00:51,noon,2,13,1,Monday,1,1,12:02:00,1,44,Bf Mahndorf,9013823,Bremen Dietrich-Bonhoeffer-Straße,26,1,1,172,172
2024-04-01,13:00:51,noon,2,13,1,Monday,1,1,12:18:00,1,44,Huchting,9013765,Bremen Bf Mahndorf,0,0,0,0,0
2024-04-01,13:00:51,noon,2,13,1,Monday,1,1,12:18:00,1,44,Huchting,9014231,Bremen Tenever-Zentrum,6,0,0,36,36
2024-04-01,13:00:51,noon,2,13,1,Monday,1,1,12:18:00,1,44,Huchting,9014179,Bremen Schweizer Eck,9,0,0,7,7
2024-04-01,13:00:51,noon,2,13,1,Monday,1,1,12:18:00,1,44,Huchting,9013900,Bremen Graubündener Straße,10,0,0,45,45
2024-04-01,13:00:51,noon,2,13,1,Monday,1,1,12:18:00,1,44,Huchting,9013838,Bremen Düsseldorfer Straße,13,1,1,80,80
2024-04-01,13:00:51,noon,2,13,1,Monday,1,1,12:18:00,1,44,Huchting,9014024,Bremen Kurt-Huber-Straße,16,0,0,49,49
2024-04-01,13:00:51,noon,2,13,1,Monday,1,1,12:18:00,1,44,Huchting,9014133,Bremen Polizeipräsidium,21,1,1,89,89
2024-04-01,13:00:51,noon,2,13,1,Monday,1,1,12:18:00,1,44,Huchting,9013989,Bremen Julius-Brecht-Allee,22,0,0,49,49
2024-04-01,13:00:51,noon,2,13,1,Monday,1,1,12:18:00,1,44,Huchting,9013750,Bremen Barbarossastraße,23,1,1,78,78
2024-04-01,13:00:51,noon,2,13,1,Monday,1,1,12:18:00,1,44,Huchting,9014001,Bremen Kirchbachstraße,25,1,1,151,151
2024-04-01,13:00:51,noon,2,13,1,Monday,1,1,12:18:00,1,44,Huchting,9013925,Bremen Hauptbahnhof,32,1,0,151,1
2024-04-01,13:00:51,noon,2,13,1,Monday,1,1,12:18:00,1,44,Huchting,9013704,Bremen Am Wall,33,0,0,0,0
2024-04-01,13:00:51,noon,2,13,1,Monday,1,1,12:38:00,1,44,Huchting,9013765,Bremen Bf Mahndorf,0,0,0,0,0
2024-04-01,13:00:51,noon,2,13,1,Monday,1,1,12:38:00,1,44,Huchting,9014100,Bremen Nußhorn,1,0,0,42,42
2024-04-01,13:00:51,noon,2,13,1,Monday,1,1,12:38:00,1,44,Huchting,9014283,Bremen Weserpark-Süd,2,0,0,13,13
2024-04-01,13:00:51,noon,2,13,1,Monday,1,1,12:38:00,1,44,Huchting,9013850,Bremen Engadiner Straße,8,0,0,59,59
2024-04-01,13:00:51,noon,2,13,1,Monday,1,1,12:38:00,1,44,Huchting,9014179,Bremen Schweizer Eck,9,0,0,-4,0
2024-04-01,13:00:51,noon,2,13,1,Monday,1,1,12:38:00,1,44,Huchting,9013900,Bremen Graubündener Straße,10,0,0,35,35
2024-04-01,13:00:51,noon,2,13,1,Monday,1,1,12:38:00,1,44,Huchting,9013845,Bremen Ellenerbrokstraße,11,1,1,69,69
2024-04-01,13:00:51,noon,2,13,1,Monday,1,1,12:38:00,1,44,Huchting,9013925,Bremen Hauptbahnhof,32,1,0,69,0
2024-04-01,13:00:51,noon,2,13,1,Monday,1,1,12:42:00,10,33,Sebaldsbrück,9013905,Bremen Gröpelingen,0,0,0,0,0
2024-04-01,13:00:51,noon,2,13,1,Monday,1,1,12:42:00,10,33,Sebaldsbrück,9014268,Bremen Waller Straße,5,0,0,29,29
2024-04-01,13:00:51,noon,2,13,1,Monday,1,1,12:42:00,10,33,Sebaldsbrück,9014265,Bremen Bahnhof Walle,6,1,1,80,80
2024-04-01,13:00:51,noon,2,13,1,Monday,1,1,12:42:00,10,33,Sebaldsbrück,9013907,Bremen Gustavstraße,7,1,1,118,118
2024-04-01,13:00:51,noon,2,13,1,Monday,1,1,12:42:00,10,33,Sebaldsbrück,9013919,Bremen Hansestraße,10,1,1,160,160
2024-04-01,13:00:51,noon,2,13,1,Monday,1,1,12:42:00,10,33,Sebaldsbrück,9013912,Bremen Haferkamp,11,1,1,128,128
2024-04-01,13:00:51,noon,2,13,1,Monday,1,1,12:42:00,10,33,Sebaldsbrück,9013925,Bremen Hauptbahnhof,15,1,1,128,98
2024-04-01,13:00:51,noon,2,13,1,Monday,1,1,12:31:00,10,33,Gröpelingen,9014184,Bremen Sebaldsbrück (Bus+Tram),0,0,0,0,0
2024-04-01,13:00:51,noon,2,13,1,Monday,1,1,12:31:00,10,33,Gröpelingen,9013884,Bremen Föhrenstraße,4,0,0,48,48
2024-04-01,13:00:51,noon,2,13,1,Monday,1,1,12:31:00,10,33,Gröpelingen,9014046,Bremen Ludwig-Quidde-Straße,6,1,1,87,87
2024-04-01,13:00:51,noon,2,13,1,Monday,1,1,12:31:00,10,33,Gröpelingen,9013758,Bremen Bennigsenstraße,7,1,1,124,124
2024-04-01,13:00:51,noon,2,13,1,Monday,1,1,12:31:00,10,33,Gröpelingen,9013694,Bremen Am Hulsberg,9,1,1,134,134
2024-04-01,13:00:51,noon,2,13,1,Monday,1,1,12:31:00,10,33,Gröpelingen,9014201,Bremen St.-Jürgen-Straße,10,1,1,105,105
2024-04-01,13:00:51,noon,2,13,1,Monday,1,1,12:31:00,10,33,Gröpelingen,9013786,Bremen Brunnenstraße,11,1,1,142,142
2024-04-01,13:00:51,noon,2,13,1,Monday,1,1,12:31:00,10,33,Gröpelingen,9014193,Bremen Sielwall,12,1,1,161,161
2024-04-01,13:00:51,noon,2,13,1,Monday,1,1,12:31:00,10,33,Gröpelingen,9013683,Bremen Am Dobben,14,1,1,104,134
2024-04-01,13:00:51,noon,2,13,1,Monday,1,1,12:31:00,10,33,Gröpelingen,9013925,Bremen Hauptbahnhof,16,1,1,177,147
2024-04-01,13:00:51,noon,2,13,1,Monday,1,1,12:22:00,10,33,Sebaldsbrück,9013905,Bremen Gröpelingen,0,0,0,0,0
2024-04-01,13:00:51,noon,2,13,1,Monday,1,1,12:22:00,10,33,Sebaldsbrück,9014038,Bremen Lindenhofstraße,1,0,0,-45,0
2024-04-01,13:00:51,noon,2,13,1,Monday,1,1,12:22:00,10,33,Sebaldsbrück,9014078,Bremen Moorstraße,2,0,0,-36,0
2024-04-01,13:00:51,noon,2,13,1,Monday,1,1,12:22:00,10,33,Sebaldsbrück,9013674,Bremen Altenescher Straße,3,0,0,-43,0
2024-04-01,13:00:51,noon,2,13,1,Monday,1,1,12:22:00,10,33,Sebaldsbrück,9014266,Bremen Waller Friedhof,4,0,0,-42,0
2024-04-01,13:00:51,noon,2,13,1,Monday,1,1,12:22:00,10,33,Sebaldsbrück,9014251,Bremen Utbremer Straße,8,0,0,43,43
2024-04-01,13:00:51,noon,2,13,1,Monday,1,1,12:22:00,10,33,Sebaldsbrück,9013919,Bremen Hansestraße,10,0,0,13,13
2024-04-01,13:00:51,noon,2,13,1,Monday,1,1,12:22:00,10,33,Sebaldsbrück,9013818,Bremen Daniel-von-Büren-Straße,13,0,0,43,43
2024-04-01,13:00:51,noon,2,13,1,Monday,1,1,12:22:00,10,33,Sebaldsbrück,9013858,Bremen Falkenstraße,14,0,0,-24,0
2024-04-01,13:00:51,noon,2,13,1,Monday,1,1,12:22:00,10,33,Sebaldsbrück,9013925,Bremen Hauptbahnhof,15,0,1,23,70
2024-04-01,13:00:51,noon,2,13,1,Monday,1,1,12:22:00,10,33,Sebaldsbrück,9014141,Bremen Rembertistraße,16,1,1,66,66
2024-04-01,13:00:51,noon,2,13,1,Monday,1,1,12:22:00,10,33,Sebaldsbrück,9013683,Bremen Am Dobben,17,0,0,43,43
2024-04-01,13:00:51,noon,2,13,1,Monday,1,1,12:22:00,10,33,Sebaldsbrück,9013973,Bremen Humboldtstraße,18,0,0,2,2
2024-04-01,13:00:51,noon,2,13,1,Monday,1,1,12:22:00,10,33,Sebaldsbrück,9014193,Bremen Sielwall,19,0,0,-36,0
2024-04-01,13:00:51,noon,2,13,1,Monday,1,1,12:22:00,10,33,Sebaldsbrück,9013786,Bremen Brunnenstraße,20,0,0,-46,0
2024-04-01,13:00:51,noon,2,13,1,Monday,1,1,12:22:00,10,33,Sebaldsbrück,9014201,Bremen St.-Jürgen-Straße,21,0,0,-95,-74
2024-04-01,13:00:51,noon,2,13,1,Monday,1,1,12:22:00,10,33,Sebaldsbrück,9013694,Bremen Am Hulsberg,22,0,0,-74,0
2024-04-01,13:00:51,noon,2,13,1,Monday,1,1,12:22:00,10,33,Sebaldsbrück,9013754,Bremen Bei den Drei Pfählen,23,0,0,-80,0
2024-04-01,13:00:51,noon,2,13,1,Monday,1,1,12:22:00,10,33,Sebaldsbrück,9013758,Bremen Bennigsenstraße,24,0,0,-48,0
2024-04-01,13:00:51,noon,2,13,1,Monday,1,1,12:22:00,10,33,Sebaldsbrück,9014046,Bremen Ludwig-Quidde-Straße,25,0,0,-78,-63
2024-04-01,13:00:51,noon,2,13,1,Monday,1,1,12:22:00,10,33,Sebaldsbrück,9014054,Bremen Malerstraße,26,0,0,-63,0
2024-04-01,13:00:51,noon,2,13,1,Monday,1,1,12:22:00,10,33,Sebaldsbrück,9013884,Bremen Föhrenstraße,27,0,0,-114,0
2024-04-01,13:00:51,noon,2,13,1,Monday,1,1,12:22:00,10,33,Sebaldsbrück,9013744,Bremen Bahnhof Sebaldsbrück,28,0,0,2,2
2024-04-01,13:00:51,noon,2,13,1,Monday,1,1,12:51:00,10,33,Gröpelingen,9014184,Bremen Sebaldsbrück (Bus+Tram),0,0,0,0,0
2024-04-01,13:00:51,noon,2,13,1,Monday,1,1,11:53:00,90,58,Gröpelingen,9065560,,0,0,1,0,3661
2024-04-01,13:00:51,noon,2,13,1,Monday,1,1,11:53:00,90,58,Gröpelingen,9065568,Neuenkirchen(Schwanewede) Vorbruch,1,1,1,3632,3632
2024-04-01,13:00:51,noon,2,13,1,Monday,1,1,11:53:00,90,58,Gröpelingen,9065559,Neuenkirchen(Schwanewede) Ahnten,2,1,1,3604,3604
2024-04-01,13:00:51,noon,2,13,1,Monday,1,1,11:53:00,90,58,Gröpelingen,9065563,Neuenkirchen(Schwanewede) Marktplatz,3,1,1,3545,3545
2024-04-01,13:00:51,noon,2,13,1,Monday,1,1,11:53:00,90,58,Gröpelingen,9065562,Neuenkirchen(Schwanewede) Landwehr,4,1,1,3485,3485
2024-04-01,13:00:51,noon,2,13,1,Monday,1,1,11:53:00,90,58,Gröpelingen,9014079,Bremen Moorstücke,5,1,1,3455,3455
2024-04-01,13:00:51,noon,2,13,1,Monday,1,1,11:53:00,90,58,Gröpelingen,9014166,Bremen Sandkuhlenweg,6,1,1,3426,3426
2024-04-01,13:00:51,noon,2,13,1,Monday,1,1,11:53:00,90,58,Gröpelingen,9014260,Bremen Vor den Wischen,7,1,1,3396,3396
2024-04-01,13:00:51,noon,2,13,1,Monday,1,1,11:53:00,90,58,Gröpelingen,9014140,Bremen Rekumer Siel,8,1,1,3367,3367
2024-04-01,13:00:51,noon,2,13,1,Monday,1,1,11:53:00,90,58,Gröpelingen,9013958,Bremen Hohenesch,9,1,1,3307,3307
2024-04-01,13:00:51,noon,2,13,1,Monday,1,1,11:53:00,90,58,Gröpelingen,9013819,Bremen De Kreienbarg,10,1,1,3277,3277
2024-04-01,13:00:51,noon,2,13,1,Monday,1,1,11:53:00,90,58,Gröpelingen,9014291,Bremen Wilhelm-Brandhorst-Straße,11,1,1,3248,3248
2024-04-01,13:00:51,noon,2,13,1,Monday,1,1,11:53:00,90,58,Gröpelingen,9013737,Bremen Bahnhof Farge,12,1,1,3189,3189
2024-04-01,13:00:51,noon,2,13,1,Monday,1,1,11:53:00,90,58,Gröpelingen,9013763,Bremen Betonstraße,13,1,1,3129,3129
2024-04-01,13:00:51,noon,2,13,1,Monday,1,1,11:53:00,90,58,Gröpelingen,9013881,Bremen Fähre Farge,14,1,1,3070,3070
2024-04-01,13:00:51,noon,2,13,1,Monday,1,1,11:53:00,90,58,Gröpelingen,9014275,Bremen Wasserweg,15,1,1,3011,3011
2024-04-01,13:00:51,noon,2,13,1,Monday,1,1,11:53:00,90,58,Gröpelingen,9013709,Bremen An der Amtsweide,16,1,1,2951,2951
2024-04-01,13:00:51,noon,2,13,1,Monday,1,1,11:53:00,90,58,Gröpelingen,9013916,Bremen Hanfstraße,17,1,1,2921,2921
2024-04-01,13:00:51,noon,2,13,1,Monday,1,1,11:53:00,90,58,Gröpelingen,9013797,Bremen Buschdeel,18,1,1,2892,2892
2024-04-01,13:00:51,noon,2,13,1,Monday,1,1,11:53:00,90,58,Gröpelingen,9013824,Bremen Dillener Park,19,1,1,2833,2833
2024-04-01,13:00:51,noon,2,13,1,Monday,1,1,11:53:00,90,58,Gröpelingen,9014163,Bremen Rönnebecker Straße,20,1,1,2773,2773
2024-04-01,13:00:51,noon,2,13,1,Monday,1,1,11:53:00,90,58,Gröpelingen,9013880,Bremen Fähre Blumenthal,21,1,1,2714,2714
2024-04-01,13:00:51,noon,2,13,1,Monday,1,1,11:53:00,90,58,Gröpelingen,9014308,Bremen Zum Donaufleet,22,1,1,2655,2655
2024-04-01,13:00:51,noon,2,13,1,Monday,1,1,11:53:00,90,58,Gröpelingen,9014315,Bremen-Blumenthal Markt,23,1,1,2595,2595
2024-04-01,13:00:51,noon,2,13,1,Monday,1,1,11:53:00,90,58,Gröpelingen,9013735,Bremen Bahnhof Blumenthal,24,1,1,2417,2297
2024-04-01,13:00:51,noon,2,13,1,Monday,1,1,11:53:00,90,58,Gröpelingen,9013764,Bremen Bf Klinikum Bremen-Nord,25,1,1,2180,2180
2024-04-01,13:00:51,noon,2,13,1,Monday,1,1,11:53:00,90,58,Gröpelingen,9014049,Bremen Löhstraße,26,1,1,2121,2121
2024-04-01,13:00:51,noon,2,13,1,Monday,1,1,11:53:00,90,58,Gröpelingen,9013766,Bremen Blumenhorster Straße,27,1,1,2061,2061
2024-04-01,13:00:51,noon,2,13,1,Monday,1,1,11:53:00,90,58,Gröpelingen,9013882,Bremen Fährer Kämpe,28,1,1,2002,2002
2024-04-01,13:00:51,noon,2,13,1,Monday,1,1,11:53:00,90,58,Gröpelingen,9013734,Bremen Bahnhof Aumund,29,1,1,1943,1943
2024-04-01,13:00:51,noon,2,13,1,Monday,1,1,11:53:00,90,58,Gröpelingen,9013731,Bremen Aumunder Heide,30,1,1,1824,1824
2024-04-01,13:00:51,noon,2,13,1,Monday,1,1,11:53:00,90,58,Gröpelingen,9013906,Bremen Gustav-Heinemann-Bürgerhaus,31,1,1,1765,1765
2024-04-01,13:00:51,noon,2,13,1,Monday,1,1,11:53:00,90,58,Gröpelingen,9013893,Bremen Gerhard-Rohlfs-Straße,32,1,1,1646,1646
2024-04-01,13:00:51,noon,2,13,1,Monday,1,1,11:53:00,90,58,Gröpelingen,9013747,Bremen Bahnhof Vegesack,33,1,1,1527,1467
2024-04-01,13:00:51,noon,2,13,1,Monday,1,1,11:53:00,90,58,Gröpelingen,9013724,Bremen Auf dem Krümpel,34,1,1,1290,1290
2024-04-01,13:00:51,noon,2,13,1,Monday,1,1,11:53:00,90,58,Gröpelingen,9013743,Bremen Bahnhof Schönebeck,35,1,1,1171,1171
2024-04-01,13:00:51,noon,2,13,1,Monday,1,1,11:53:00,90,58,Gröpelingen,9014228,Bremen Tannenhof,36,1,1,1112,1112
2024-04-01,13:00:51,noon,2,13,1,Monday,1,1,11:53:00,90,58,Gröpelingen,9013676,Bremen Am Bahnhof St. Magnus,37,1,1,1053,1053
2024-04-01,13:00:51,noon,2,13,1,Monday,1,1,11:53:00,90,58,Gröpelingen,9013966,Bremen Holthorster Weg,38,1,1,993,993
2024-04-01,13:00:51,noon,2,13,1,Monday,1,1,11:53:00,90,58,Gröpelingen,9014310,Bremen Zum Kränholm,39,1,1,934,934
2024-04-01,13:00:51,noon,2,13,1,Monday,1,1,11:53:00,90,58,Gröpelingen,9013739,Bremen Bahnhof Lesum,40,1,1,875,875
2024-04-01,13:00:51,noon,2,13,1,Monday,1,1,11:53:00,90,58,Gröpelingen,9014158,Bremen Rotdornallee,41,1,1,815,815
2024-04-01,13:00:51,noon,2,13,1,Monday,1,1,11:53:00,90,58,Gröpelingen,9013692,Bremen Am Heidbergstift,42,1,1,756,756
2024-04-01,13:00:51,noon,2,13,1,Monday,1,1,11:53:00,90,58,Gröpelingen,9013795,Bremen Burgdammer Postweg,43,1,1,637,637
2024-04-01,13:00:51,noon,2,13,1,Monday,1,1,11:53:00,90,58,Gröpelingen,9013895,Bremen Goldbergplatz,44,1,1,578,578
2024-04-01,13:00:51,noon,2,13,1,Monday,1,1,11:53:00,90,58,Gröpelingen,9014204,Bremen Stader Landstraße,45,1,1,518,518
2024-04-01,13:00:51,noon,2,13,1,Monday,1,1,11:53:00,90,58,Gröpelingen,9013736,Bremen-Burg(Bus),46,1,1,406,436
2024-04-01,13:00:51,noon,2,13,1,Monday,1,1,12:28:00,90,58,Neuenkirchen,9013905,Bremen Gröpelingen,0,0,0,0,6
2024-04-01,13:00:51,noon,2,13,1,Monday,1,1,12:28:00,90,58,Neuenkirchen,9013993,Bremen Karl-Bröger-Straße,1,0,0,-23,-7
2024-04-01,13:00:51,noon,2,13,1,Monday,1,1,12:28:00,90,58,Neuenkirchen,9013816,Bremen DIAKO Bremen,2,0,0,-14,25
2024-04-01,13:00:51,noon,2,13,1,Monday,1,1,12:28:00,90,58,Neuenkirchen,9013685,Bremen Am Fuchsberg,3,0,0,44,50
2024-04-01,13:00:51,noon,2,13,1,Monday,1,1,12:28:00,90,58,Neuenkirchen,9014151,Bremen Ritterhuder Heerstraße,4,1,1,72,88
2024-04-01,13:00:51,noon,2,13,1,Monday,1,1,12:28:00,90,58,Neuenkirchen,9013829,Bremen Dohlenstraße,5,1,1,67,82
2024-04-01,13:00:51,noon,2,13,1,Monday,1,1,12:28:00,90,58,Neuenkirchen,9014257,Bremen Von-Ossietzky-Straße,6,1,1,92,92
2024-04-01,13:00:51,noon,2,13,1,Monday,1,1,12:28:00,90,58,Neuenkirchen,9014075,Bremen Mittelsbürener Landstraße,7,1,1,91,104
2024-04-01,13:00:51,noon,2,13,1,Monday,1,1,12:28:00,90,58,Neuenkirchen,9013687,Bremen Am Geestkamp,8,0,1,47,62
2024-04-01,13:00:51,noon,2,13,1,Monday,1,1,12:28:00,90,58,Neuenkirchen,9013707,Bremen An Smidts Park,9,0,0,58,58
2024-04-01,13:00:51,noon,2,13,1,Monday,1,1,12:28:00,90,58,Neuenkirchen,9013793,Bremen Burger Dorfstraße,10,0,0,33,33
2024-04-01,13:00:51,noon,2,13,1,Monday,1,1,12:28:00,90,58,Neuenkirchen,9013736,Bremen-Burg(Bus),11,0,0,12,0
2024-04-01,13:00:51,noon,2,13,1,Monday,1,1,12:28:00,90,58,Neuenkirchen,9014204,Bremen Stader Landstraße,12,0,1,15,72
2024-04-01,13:00:51,noon,2,13,1,Monday,1,1,12:28:00,90,58,Neuenkirchen,9013895,Bremen Goldbergplatz,13,1,1,65,65
2024-04-01,13:00:51,noon,2,13,1,Monday,1,1,12:28:00,90,58,Neuenkirchen,9013795,Bremen Burgdammer Postweg,14,0,0,59,59
2024-04-01,13:00:51,noon,2,13,1,Monday,1,1,12:28:00,90,58,Neuenkirchen,9013692,Bremen Am Heidbergstift,15,0,0,30,30
2024-04-01,13:00:51,noon,2,13,1,Monday,1,1,12:28:00,90,58,Neuenkirchen,9013739,Bremen Bahnhof Lesum,17,1,1,60,60
2024-04-01,13:00:51,noon,2,13,1,Monday,1,1,12:28:00,90,58,Neuenkirchen,9014310,Bremen Zum Kränholm,18,1,1,75,75
2024-04-01,13:00:51,noon,2,13,1,Monday,1,1,12:28:00,90,58,Neuenkirchen,9013966,Bremen Holthorster Weg,19,1,1,105,105
2024-04-01,13:00:51,noon,2,13,1,Monday,1,1,12:28:00,90,58,Neuenkirchen,9013743,Bremen Bahnhof Schönebeck,22,1,1,76,76
2024-04-01,13:00:51,noon,2,13,1,Monday,1,1,12:28:00,90,58,Neuenkirchen,9013724,Bremen Auf dem Krümpel,23,1,1,79,79
2024-04-01,13:00:51,noon,2,13,1,Monday,1,1,12:28:00,90,58,Neuenkirchen,9013747,Bremen Bahnhof Vegesack,24,0,0,18,0
2024-04-01,13:00:51,noon,2,13,1,Monday,1,1,12:28:00,90,58,Neuenkirchen,9014308,Bremen Zum Donaufleet,35,0,0,-30,-30
2024-04-01,13:00:51,noon,2,13,1,Monday,1,1,12:28:00,90,58,Neuenkirchen,9013880,Bremen Fähre Blumenthal,36,0,0,0,0
2024-04-01,13:00:51,noon,2,13,1,Monday,1,1,12:28:00,90,58,Neuenkirchen,9013916,Bremen Hanfstraße,40,0,0,-30,-30
2024-04-01,13:00:51,noon,2,13,1,Monday,1,1,12:28:00,90,58,Neuenkirchen,9013709,Bremen An der Amtsweide,41,0,0,0,0
2024-04-01,13:00:51,noon,2,13,1,Monday,1,1,12:28:00,90,58,Neuenkirchen,9014275,Bremen Wasserweg,42,0,0,-30,-30
2024-04-01,13:00:51,noon,2,13,1,Monday,1,1,12:28:00,90,58,Neuenkirchen,9013881,Bremen Fähre Farge,43,0,0,0,0
2024-04-01,13:00:51,noon,2,13,1,Monday,1,1,12:28:00,90,58,Neuenkirchen,9013958,Bremen Hohenesch,48,0,0,-30,-30
2024-04-01,13:00:51,noon,2,13,1,Monday,1,1,12:28:00,90,58,Neuenkirchen,9014140,Bremen Rekumer Siel,49,0,0,0,0
2024-04-01,13:00:51,noon,2,13,1,Monday,1,1,12:28:00,90,58,Neuenkirchen,9014166,Bremen Sandkuhlenweg,51,0,0,-30,-30
2024-04-01,13:00:51,noon,2,13,1,Monday,1,1,12:28:00,90,58,Neuenkirchen,9014079,Bremen Moorstücke,52,0,0,0,0
2024-04-01,13:00:51,noon,2,13,1,Monday,1,1,12:28:00,90,58,Neuenkirchen,9065563,Neuenkirchen(Schwanewede) Marktplatz,54,0,0,-30,-30
2024-04-01,13:00:51,noon,2,13,1,Monday,1,1,12:28:00,90,58,Neuenkirchen,9065559,Neuenkirchen(Schwanewede) Ahnten,55,0,0,0,0
2024-04-01,13:00:51,noon,2,13,1,Monday,1,1,11:58:00,90,58,Neuenkirchen,9013905,Bremen Gröpelingen,0,0,0,0,-18
2024-04-01,13:00:51,noon,2,13,1,Monday,1,1,11:58:00,90,58,Neuenkirchen,9013993,Bremen Karl-Bröger-Straße,1,0,0,-38,-14
2024-04-01,13:00:51,noon,2,13,1,Monday,1,1,11:58:00,90,58,Neuenkirchen,9013816,Bremen DIAKO Bremen,2,0,0,-22,-1
2024-04-01,13:00:51,noon,2,13,1,Monday,1,1,11:58:00,90,58,Neuenkirchen,9013685,Bremen Am Fuchsberg,3,0,0,20,41
2024-04-01,13:00:51,noon,2,13,1,Monday,1,1,11:58:00,90,58,Neuenkirchen,9014151,Bremen Ritterhuder Heerstraße,4,0,1,51,70
2024-04-01,13:00:51,noon,2,13,1,Monday,1,1,11:58:00,90,58,Neuenkirchen,9013829,Bremen Dohlenstraße,5,0,1,48,64
2024-04-01,13:00:51,noon,2,13,1,Monday,1,1,11:58:00,90,58,Neuenkirchen,9014257,Bremen Von-Ossietzky-Straße,6,0,1,59,81
2024-04-01,13:00:51,noon,2,13,1,Monday,1,1,11:58:00,90,58,Neuenkirchen,9014075,Bremen Mittelsbürener Landstraße,7,1,1,85,95
2024-04-01,13:00:51,noon,2,13,1,Monday,1,1,11:58:00,90,58,Neuenkirchen,9013687,Bremen Am Geestkamp,8,0,1,40,61
2024-04-01,13:00:51,noon,2,13,1,Monday,1,1,11:58:00,90,58,Neuenkirchen,9013707,Bremen An Smidts Park,9,0,1,54,73
2024-04-01,13:00:51,noon,2,13,1,Monday,1,1,11:58:00,90,58,Neuenkirchen,9013793,Bremen Burger Dorfstraße,10,0,1,56,63
2024-04-01,13:00:51,noon,2,13,1,Monday,1,1,11:58:00,90,58,Neuenkirchen,9013736,Bremen-Burg(Bus),11,0,0,24,-35
2024-04-01,13:00:51,noon,2,13,1,Monday,1,1,11:58:00,90,58,Neuenkirchen,9014204,Bremen Stader Landstraße,12,0,0,-17,32
2024-04-01,13:00:51,noon,2,13,1,Monday,1,1,11:58:00,90,58,Neuenkirchen,9013895,Bremen Goldbergplatz,13,0,0,29,46
2024-04-01,13:00:51,noon,2,13,1,Monday,1,1,11:58:00,90,58,Neuenkirchen,9013795,Bremen Burgdammer Postweg,14,0,0,44,59
2024-04-01,13:00:51,noon,2,13,1,Monday,1,1,11:58:00,90,58,Neuenkirchen,9013692,Bremen Am Heidbergstift,15,0,0,18,32
2024-04-01,13:00:51,noon,2,13,1,Monday,1,1,11:58:00,90,58,Neuenkirchen,9014158,Bremen Rotdornallee,16,0,0,18,18
2024-04-01,13:00:51,noon,2,13,1,Monday,1,1,11:58:00,90,58,Neuenkirchen,9013739,Bremen Bahnhof Lesum,17,0,0,28,47
2024-04-01,13:00:51,noon,2,13,1,Monday,1,1,11:58:00,90,58,Neuenkirchen,9014310,Bremen Zum Kränholm,18,0,0,46,58
2024-04-01,13:00:51,noon,2,13,1,Monday,1,1,11:58:00,90,58,Neuenkirchen,9013966,Bremen Holthorster Weg,19,1,1,63,90
2024-04-01,13:00:51,noon,2,13,1,Monday,1,1,11:58:00,90,58,Neuenkirchen,9013676,Bremen Am Bahnhof St. Magnus,20,1,1,64,64
2024-04-01,13:00:51,noon,2,13,1,Monday,1,1,11:58:00,90,58,Neuenkirchen,9014228,Bremen Tannenhof,21,0,1,55,68
2024-04-01,13:00:51,noon,2,13,1,Monday,1,1,11:58:00,90,58,Neuenkirchen,9013743,Bremen Bahnhof Schönebeck,22,1,1,77,93
2024-04-01,13:00:51,noon,2,13,1,Monday,1,1,11:58:00,90,58,Neuenkirchen,9013724,Bremen Auf dem Krümpel,23,1,1,80,80
2024-04-01,13:00:51,noon,2,13,1,Monday,1,1,11:58:00,90,58,Neuenkirchen,9013747,Bremen Bahnhof Vegesack,24,0,1,-49,86
2024-04-01,13:00:51,noon,2,13,1,Monday,1,1,11:58:00,90,58,Neuenkirchen,9013893,Bremen Gerhard-Rohlfs-Straße,25,1,1,91,110
2024-04-01,13:00:51,noon,2,13,1,Monday,1,1,11:58:00,90,58,Neuenkirchen,9013906,Bremen Gustav-Heinemann-Bürgerhaus,26,1,1,71,91
2024-04-01,13:00:51,noon,2,13,1,Monday,1,1,11:58:00,90,58,Neuenkirchen,9013731,Bremen Aumunder Heide,27,1,1,76,98
2024-04-01,13:00:51,noon,2,13,1,Monday,1,1,11:58:00,90,58,Neuenkirchen,9013734,Bremen Bahnhof Aumund,28,1,1,92,114
2024-04-01,13:00:51,noon,2,13,1,Monday,1,1,11:58:00,90,58,Neuenkirchen,9013882,Bremen Fährer Kämpe,29,1,1,135,153
2024-04-01,13:00:51,noon,2,13,1,Monday,1,1,11:58:00,90,58,Neuenkirchen,9013766,Bremen Blumenhorster Straße,30,1,1,143,161
2024-04-01,13:00:51,noon,2,13,1,Monday,1,1,11:58:00,90,58,Neuenkirchen,9014049,Bremen Löhstraße,31,1,1,148,158
2024-04-01,13:00:51,noon,2,13,1,Monday,1,1,11:58:00,90,58,Neuenkirchen,9013764,Bremen Bf Klinikum Bremen-Nord,32,1,1,131,149
2024-04-01,13:00:51,noon,2,13,1,Monday,1,1,11:58:00,90,58,Neuenkirchen,9013735,Bremen Bahnhof Blumenthal,33,1,0,83,14
2024-04-01,13:00:51,noon,2,13,1,Monday,1,1,11:58:00,90,58,Neuenkirchen,9014315,Bremen-Blumenthal Markt,34,0,0,15,33
2024-04-01,13:00:51,noon,2,13,1,Monday,1,1,11:58:00,90,58,Neuenkirchen,9014308,Bremen Zum Donaufleet,35,0,0,3,3
2024-04-01,13:00:51,noon,2,13,1,Monday,1,1,11:58:00,90,58,Neuenkirchen,9013880,Bremen Fähre Blumenthal,36,1,1,63,63
2024-04-01,13:00:51,noon,2,13,1,Monday,1,1,11:58:00,90,58,Neuenkirchen,9013916,Bremen Hanfstraße,40,1,1,70,70
2024-04-01,13:00:51,noon,2,13,1,Monday,1,1,11:58:00,90,58,Neuenkirchen,9013709,Bremen An der Amtsweide,41,1,1,93,93
2024-04-01,13:00:51,noon,2,13,1,Monday,1,1,11:58:00,90,58,Neuenkirchen,9013881,Bremen Fähre Farge,43,1,1,123,123
2024-04-01,13:00:51,noon,2,13,1,Monday,1,1,11:58:00,90,58,Neuenkirchen,9013958,Bremen Hohenesch,48,1,1,93,93
2024-04-01,13:00:51,noon,2,13,1,Monday,1,1,11:58:00,90,58,Neuenkirchen,9014140,Bremen Rekumer Siel,49,1,1,123,123
2024-04-01,13:00:51,noon,2,13,1,Monday,1,1,11:58:00,90,58,Neuenkirchen,9014166,Bremen Sandkuhlenweg,51,1,1,93,93
2024-04-01,13:00:51,noon,2,13,1,Monday,1,1,11:58:00,90,58,Neuenkirchen,9014079,Bremen Moorstücke,52,1,1,123,123
2024-04-01,13:00:51,noon,2,13,1,Monday,1,1,11:58:00,90,58,Neuenkirchen,9065563,Neuenkirchen(Schwanewede) Marktplatz,54,1,1,93,93
2024-04-01,13:00:51,noon,2,13,1,Monday,1,1,11:58:00,90,58,Neuenkirchen,9065559,Neuenkirchen(Schwanewede) Ahnten,55,1,1,123,123
2024-04-01,13:00:51,noon,2,13,1,Monday,1,1,12:53:00,90,58,Gröpelingen,9065560,,0,0,0,0,0
2024-04-01,13:00:51,noon,2,13,1,Monday,1,1,12:53:00,90,58,Gröpelingen,9065568,Neuenkirchen(Schwanewede) Vorbruch,1,0,0,-30,-30
2024-04-01,13:00:51,noon,2,13,1,Monday,1,1,12:53:00,90,58,Gröpelingen,9065559,Neuenkirchen(Schwanewede) Ahnten,2,0,0,0,0
2024-04-01,13:00:51,noon,2,13,1,Monday,1,1,12:53:00,90,58,Gröpelingen,9014079,Bremen Moorstücke,5,0,0,-30,-30
2024-04-01,13:00:51,noon,2,13,1,Monday,1,1,12:53:00,90,58,Gröpelingen,9014166,Bremen Sandkuhlenweg,6,0,0,0,0
2024-04-01,13:00:51,noon,2,13,1,Monday,1,1,12:53:00,90,58,Gröpelingen,9014260,Bremen Vor den Wischen,7,0,0,-30,-30
2024-04-01,13:00:51,noon,2,13,1,Monday,1,1,12:53:00,90,58,Gröpelingen,9014140,Bremen Rekumer Siel,8,0,0,0,0
2024-04-01,13:00:51,noon,2,13,1,Monday,1,1,12:53:00,90,58,Gröpelingen,9013819,Bremen De Kreienbarg,10,0,0,-30,-30
2024-04-01,13:00:51,noon,2,13,1,Monday,1,1,12:53:00,90,58,Gröpelingen,9014291,Bremen Wilhelm-Brandhorst-Straße,11,0,0,0,0
2024-04-01,13:00:51,noon,2,13,1,Monday,1,1,12:53:00,90,58,Gröpelingen,9013916,Bremen Hanfstraße,17,0,0,-30,-30
2024-04-01,13:00:51,noon,2,13,1,Monday,1,1,12:53:00,90,58,Gröpelingen,9013797,Bremen Buschdeel,18,0,0,0,0
2024-04-01,13:00:51,noon,2,13,1,Monday,1,1,12:23:00,90,58,Gröpelingen,9065560,,0,0,0,0,-36
2024-04-01,13:00:51,noon,2,13,1,Monday,1,1,12:23:00,90,58,Gröpelingen,9065568,Neuenkirchen(Schwanewede) Vorbruch,1,0,0,-35,-30
2024-04-01,13:00:51,noon,2,13,1,Monday,1,1,12:23:00,90,58,Gröpelingen,9065559,Neuenkirchen(Schwanewede) Ahnten,2,0,0,34,34
2024-04-01,13:00:51,noon,2,13,1,Monday,1,1,12:23:00,90,58,Gröpelingen,9065563,Neuenkirchen(Schwanewede) Marktplatz,3,0,0,-14,0
2024-04-01,13:00:51,noon,2,13,1,Monday,1,1,12:23:00,90,58,Gröpelingen,9065562,Neuenkirchen(Schwanewede) Landwehr,4,0,0,-52,-52
2024-04-01,13:00:51,noon,2,13,1,Monday,1,1,12:23:00,90,58,Gröpelingen,9014079,Bremen Moorstücke,5,0,0,-51,-30
2024-04-01,13:00:51,noon,2,13,1,Monday,1,1,12:23:00,90,58,Gröpelingen,9014166,Bremen Sandkuhlenweg,6,0,0,-38,-38
2024-04-01,13:00:51,noon,2,13,1,Monday,1,1,12:23:00,90,58,Gröpelingen,9014260,Bremen Vor den Wischen,7,0,0,-68,-30
2024-04-01,13:00:51,noon,2,13,1,Monday,1,1,12:23:00,90,58,Gröpelingen,9014140,Bremen Rekumer Siel,8,0,0,-24,0
2024-04-01,13:00:51,noon,2,13,1,Monday,1,1,12:23:00,90,58,Gröpelingen,9013958,Bremen Hohenesch,9,0,0,-37,-23
2024-04-01,13:00:51,noon,2,13,1,Monday,1,1,12:23:00,90,58,Gröpelingen,9013819,Bremen De Kreienbarg,10,0,0,-53,-30
2024-04-01,13:00:51,noon,2,13,1,Monday,1,1,12:23:00,90,58,Gröpelingen,9014291,Bremen Wilhelm-Brandhorst-Straße,11,0,0,6,6
2024-04-01,13:00:51,noon,2,13,1,Monday,1,1,12:23:00,90,58,Gröpelingen,9013737,Bremen Bahnhof Farge,12,0,0,-26,0
2024-04-01,13:00:51,noon,2,13,1,Monday,1,1,12:23:00,90,58,Gröpelingen,9013763,Bremen Betonstraße,13,0,0,6,6
2024-04-01,13:00:51,noon,2,13,1,Monday,1,1,12:23:00,90,58,Gröpelingen,9013881,Bremen Fähre Farge,14,0,0,-33,0
2024-04-01,13:00:51,noon,2,13,1,Monday,1,1,12:23:00,90,58,Gröpelingen,9014275,Bremen Wasserweg,15,0,0,6,6
2024-04-01,13:00:51,noon,2,13,1,Monday,1,1,12:23:00,90,58,Gröpelingen,9013709,Bremen An der Amtsweide,16,0,0,-30,-30
2024-04-01,13:00:51,noon,2,13,1,Monday,1,1,12:23:00,90,58,Gröpelingen,9013797,Bremen Buschdeel,18,0,0,6,6
2024-04-01,13:00:51,noon,2,13,1,Monday,1,1,12:23:00,90,58,Gröpelingen,9013824,Bremen Dillener Park,19,0,0,-42,0
2024-04-01,13:00:51,noon,2,13,1,Monday,1,1,12:23:00,90,58,Gröpelingen,9014163,Bremen Rönnebecker Straße,20,0,0,-29,0
2024-04-01,13:00:51,noon,2,13,1,Monday,1,1,12:23:00,90,58,Gröpelingen,9013880,Bremen Fähre Blumenthal,21,0,0,6,6
2024-04-01,13:00:51,noon,2,13,1,Monday,1,1,12:23:00,90,58,Gröpelingen,9014308,Bremen Zum Donaufleet,22,0,0,-43,0
2024-04-01,13:00:51,noon,2,13,1,Monday,1,1,12:23:00,90,58,Gröpelingen,9014315,Bremen-Blumenthal Markt,23,0,0,6,6
2024-04-01,13:00:51,noon,2,13,1,Monday,1,1,12:23:00,90,58,Gröpelingen,9013735,Bremen Bahnhof Blumenthal,24,0,0,-48,0
2024-04-01,13:00:51,noon,2,13,1,Monday,1,1,12:23:00,90,58,Gröpelingen,9014049,Bremen Löhstraße,26,0,0,-37,0
2024-04-01,13:00:51,noon,2,13,1,Monday,1,1,12:23:00,90,58,Gröpelingen,9013766,Bremen Blumenhorster Straße,27,0,0,-41,0
2024-04-01,13:00:51,noon,2,13,1,Monday,1,1,12:23:00,90,58,Gröpelingen,9013734,Bremen Bahnhof Aumund,29,1,1,61,61
2024-04-01,13:00:51,noon,2,13,1,Monday,1,1,12:23:00,90,58,Gröpelingen,9013731,Bremen Aumunder Heide,30,0,0,56,56
2024-04-01,13:00:51,noon,2,13,1,Monday,1,1,12:23:00,90,58,Gröpelingen,9013747,Bremen Bahnhof Vegesack,33,0,0,56,26
2024-04-01,13:00:51,noon,2,13,1,Monday,1,1,12:23:00,90,58,Gröpelingen,9013736,Bremen-Burg(Bus),46,0,0,26,0
2024-04-01,13:00:51,noon,2,13,1,Monday,1,1,12:19:00,90,58,Gröpelingen,9014275,Bremen Wasserweg,0,0,0,0,0
2024-04-01,13:00:51,noon,2,13,1,Monday,1,1,12:19:00,90,58,Gröpelingen,9013916,Bremen Hanfstraße,2,0,0,4,4
2024-04-01,13:00:51,noon,2,13,1,Monday,1,1,12:19:00,90,58,Gröpelingen,9013797,Bremen Buschdeel,3,0,0,34,34
2024-04-01,13:00:51,noon,2,13,1,Monday,1,1,12:19:00,90,58,Gröpelingen,9014308,Bremen Zum Donaufleet,7,0,0,-12,0
2024-04-01,13:00:51,noon,2,13,1,Monday,1,1,12:19:00,90,58,Gröpelingen,9013735,Bremen Bahnhof Blumenthal,9,0,0,-85,0
2024-04-01,13:00:51,noon,2,13,1,Monday,1,1,12:19:00,90,58,Gröpelingen,9013764,Bremen Bf Klinikum Bremen-Nord,10,0,0,-29,0
2024-04-01,13:00:51,noon,2,13,1,Monday,1,1,12:19:00,90,58,Gröpelingen,9013734,Bremen Bahnhof Aumund,14,0,0,35,35
2024-04-01,13:00:51,noon,2,13,1,Monday,1,1,12:19:00,90,58,Gröpelingen,9013731,Bremen Aumunder Heide,15,0,0,-1,0
2024-04-01,13:00:51,noon,2,13,1,Monday,1,1,12:19:00,90,58,Gröpelingen,9013893,Bremen Gerhard-Rohlfs-Straße,17,0,0,-4,0
2024-04-01,13:00:51,noon,2,13,1,Monday,1,1,12:19:00,90,58,Gröpelingen,9013747,Bremen Bahnhof Vegesack,18,0,0,-16,47
2024-04-01,13:00:51,noon,2,13,1,Monday,1,1,12:19:00,90,58,Gröpelingen,9013724,Bremen Auf dem Krümpel,19,1,1,88,88
2024-04-01,13:00:51,noon,2,13,1,Monday,1,1,12:19:00,90,58,Gröpelingen,9013736,Bremen-Burg(Bus),30,1,0,88,58
2024-04-01,13:00:51,noon,2,13,1,Monday,1,1,12:49:00,90,58,Gröpelingen,9014275,Bremen Wasserweg,0,0,0,0,0
2024-04-01,13:00:51,noon,2,13,1,Monday,1,1,12:49:00,90,58,Gröpelingen,9013916,Bremen Hanfstraße,2,0,0,40,40
2024-04-01,13:00:51,noon,2,13,1,Monday,1,1,12:49:00,90,58,Gröpelingen,9013797,Bremen Buschdeel,3,0,0,38,38
2024-04-01,13:00:51,noon,2,13,1,Monday,1,1,12:49:00,90,58,Gröpelingen,9014315,Bremen-Blumenthal Markt,8,0,0,9,9
2024-04-01,13:00:51,noon,2,13,1,Monday,1,1,12:49:00,90,58,Gröpelingen,9013735,Bremen Bahnhof Blumenthal,9,0,0,-40,0
2024-04-01,13:00:51,noon,2,13,1,Monday,1,1,12:58:00,90,58,Neuenkirchen,9013905,Bremen Gröpelingen,0,0,0,0,0
2024-04-01,13:00:51,noon,2,13,1,Monday,1,1,12:58:00,90,58,Neuenkirchen,9013816,Bremen DIAKO Bremen,2,0,0,-30,-30
2024-04-01,13:00:51,noon,2,13,1,Monday,1,1,12:58:00,90,58,Neuenkirchen,9013685,Bremen Am Fuchsberg,3,0,0,0,0
2024-04-01,13:00:51,noon,2,13,1,Monday,1,1,12:58:00,90,58,Neuenkirchen,9014310,Bremen Zum Kränholm,18,0,0,-30,-30
2024-04-01,13:00:51,noon,2,13,1,Monday,1,1,12:58:00,90,58,Neuenkirchen,9013966,Bremen Holthorster Weg,19,0,0,0,0
2024-04-01,13:00:51,noon,2,13,1,Monday,1,1,12:58:00,90,58,Neuenkirchen,9014308,Bremen Zum Donaufleet,35,0,0,-30,-30
2024-04-01,13:00:51,noon,2,13,1,Monday,1,1,12:58:00,90,58,Neuenkirchen,9013880,Bremen Fähre Blumenthal,36,0,0,0,0
2024-04-01,13:00:51,noon,2,13,1,Monday,1,1,12:58:00,90,58,Neuenkirchen,9013916,Bremen Hanfstraße,40,0,0,-30,-30
2024-04-01,13:00:51,noon,2,13,1,Monday,1,1,12:58:00,90,58,Neuenkirchen,9013709,Bremen An der Amtsweide,41,0,0,0,0
2024-04-01,13:00:51,noon,2,13,1,Monday,1,1,12:58:00,90,58,Neuenkirchen,9014275,Bremen Wasserweg,42,0,0,-30,-30
2024-04-01,13:00:51,noon,2,13,1,Monday,1,1,12:58:00,90,58,Neuenkirchen,9013881,Bremen Fähre Farge,43,0,0,0,0
2024-04-01,13:00:51,noon,2,13,1,Monday,1,1,12:58:00,90,58,Neuenkirchen,9013958,Bremen Hohenesch,48,0,0,-30,-30
2024-04-01,13:00:51,noon,2,13,1,Monday,1,1,12:58:00,90,58,Neuenkirchen,9014140,Bremen Rekumer Siel,49,0,0,0,0
2024-04-01,13:00:51,noon,2,13,1,Monday,1,1,12:58:00,90,58,Neuenkirchen,9014166,Bremen Sandkuhlenweg,51,0,0,-30,-30
2024-04-01,13:00:51,noon,2,13,1,Monday,1,1,12:58:00,90,58,Neuenkirchen,9014079,Bremen Moorstücke,52,0,0,0,0
2024-04-01,13:00:51,noon,2,13,1,Monday,1,1,12:58:00,90,58,Neuenkirchen,9065563,Neuenkirchen(Schwanewede) Marktplatz,54,0,0,-30,-30
2024-04-01,13:00:51,noon,2,13,1,Monday,1,1,12:58:00,90,58,Neuenkirchen,9065559,Neuenkirchen(Schwanewede) Ahnten,55,0,0,0,0
2024-04-01,13:00:51,noon,2,13,1,Monday,1,1,12:45:00,4,49,Lilienthal,9013716,Bremen Arsten,0,0,0,0,0
2024-04-01,13:00:51,noon,2,13,1,Monday,1,1,12:45:00,4,49,Lilienthal,9013999,Bremen Kattenturm-Mitte,3,0,0,31,31
2024-04-01,13:00:51,noon,2,13,1,Monday,1,1,12:45:00,4,49,Lilienthal,9014009,Bremen Klinikum Links der Weser,4,1,1,62,62
2024-04-01,13:00:51,noon,2,13,1,Monday,1,1,12:45:00,4,49,Lilienthal,9013925,Bremen Hauptbahnhof,18,1,0,62,0
2024-04-01,13:00:51,noon,2,13,1,Monday,1,1,12:05:00,4,49,Lilienthal,9013716,Bremen Arsten,0,0,0,0,0
2024-04-01,13:00:51,noon,2,13,1,Monday,1,1,12:05:00,4,49,Lilienthal,9014241,Bremen Twiedelftsweg,1,0,0,-36,0
2024-04-01,13:00:51,noon,2,13,1,Monday,1,1,12:05:00,4,49,Lilienthal,9013971,Bremen Huckelriede,7,0,0,-58,0
2024-04-01,13:00:51,noon,2,13,1,Monday,1,1,12:05:00,4,49,Lilienthal,9013682,Bremen Am Dammacker,8,0,0,-35,0
2024-04-01,13:00:51,noon,2,13,1,Monday,1,1,12:05:00,4,49,Lilienthal,9014157,Bremen Rosenpfad,9,0,0,-32,0
2024-04-01,13:00:51,noon,2,13,1,Monday,1,1,12:05:00,4,49,Lilienthal,9013830,Bremen Domsheide,15,0,0,-47,0
2024-04-01,13:00:51,noon,2,13,1,Monday,1,1,12:05:00,4,49,Lilienthal,9014141,Bremen Rembertistraße,19,0,0,42,42
2024-04-01,13:00:51,noon,2,13,1,Monday,1,1,12:05:00,4,49,Lilienthal,9013683,Bremen Am Dobben,20,0,0,52,52
2024-04-01,13:00:51,noon,2,13,1,Monday,1,1,12:05:00,4,49,Lilienthal,9014001,Bremen Kirchbachstraße,25,1,1,73,103
2024-04-01,13:00:51,noon,2,13,1,Monday,1,1,12:05:00,4,49,Lilienthal,9013969,Bremen Horn (Horner Kirche),29,1,1,60,60
2024-04-01,13:00:51,noon,2,13,1,Monday,1,1,12:05:00,4,49,Lilienthal,9013970,Bremen Horner Mühle,31,0,0,-2,0
2024-04-01,13:00:51,noon,2,13,1,Monday,1,1,12:10:00,4,49,Arsten,9055728,Lilienthal,0,0,0,0,0
2024-04-01,13:00:51,noon,2,13,1,Monday,1,1,12:10:00,4,49,Arsten,9055739,Lilienthal Kutscher Behrens,1,0,1,-1,211
2024-04-01,13:00:51,noon,2,13,1,Monday,1,1,12:10:00,4,49,Arsten,9055742,Lilienthal Moorhauser Landstraße,5,1,1,166,166
2024-04-01,13:00:51,noon,2,13,1,Monday,1,1,12:10:00,4,49,Arsten,9055734,Lilienthal Feldhäuser Straße,7,1,1,195,195
2024-04-01,13:00:51,noon,2,13,1,Monday,1,1,12:10:00,4,49,Arsten,9055746,Lilienthal Trupe,8,1,1,189,189
2024-04-01,13:00:51,noon,2,13,1,Monday,1,1,12:10:00,4,49,Arsten,9013773,Bremen Borgfeld,10,1,1,121,121
2024-04-01,13:00:51,noon,2,13,1,Monday,1,1,12:10:00,4,49,Arsten,9013974,Bremen Höger Weg,13,1,1,158,158
2024-04-01,13:00:51,noon,2,13,1,Monday,1,1,12:10:00,4,49,Arsten,9014128,Bremen Peter-Henlein-Straße,14,1,1,124,124
2024-04-01,13:00:51,noon,2,13,1,Monday,1,1,12:10:00,4,49,Arsten,9014263,Bremen Vorstraße,18,1,1,165,165
2024-04-01,13:00:51,noon,2,13,1,Monday,1,1,12:10:00,4,49,Arsten,9013803,Bremen Bürgermeister-Spitta-Allee,20,1,1,159,159
2024-04-01,13:00:51,noon,2,13,1,Monday,1,1,12:10:00,4,49,Arsten,9013866,Bremen Focke-Museum,21,1,1,167,167
2024-04-01,13:00:51,noon,2,13,1,Monday,1,1,12:10:00,4,49,Arsten,9014072,Bremen Metzer Straße,24,1,1,198,198
2024-04-01,13:00:51,noon,2,13,1,Monday,1,1,12:10:00,4,49,Arsten,9013683,Bremen Am Dobben,28,1,1,201,231
2024-04-01,13:00:51,noon,2,13,1,Monday,1,1,12:10:00,4,49,Arsten,9013925,Bremen Hauptbahnhof,30,1,0,193,43
2024-04-01,13:00:51,noon,2,13,1,Monday,1,1,12:10:00,4,49,Arsten,9013943,Bremen Herdentor,31,1,1,115,115
2024-04-01,13:00:51,noon,2,13,1,Monday,1,1,12:10:00,4,49,Arsten,9014235,Bremen Theater am Leibnizplatz,35,1,1,68,68
2024-04-01,13:00:51,noon,2,13,1,Monday,1,1,12:10:00,4,49,Arsten,9014241,Bremen Twiedelftsweg,47,0,0,38,38
2024-04-01,13:00:51,noon,2,13,1,Monday,1,1,12:10:00,4,49,Arsten,9013716,Bremen Arsten,48,1,0,68,0
2024-04-01,13:00:51,noon,2,13,1,Monday,1,1,12:25:00,4,49,Lilienthal,9013716,Bremen Arsten,0,0,0,0,0
2024-04-01,13:00:51,noon,2,13,1,Monday,1,1,12:25:00,4,49,Lilienthal,9013999,Bremen Kattenturm-Mitte,3,0,0,31,31
2024-04-01,13:00:51,noon,2,13,1,Monday,1,1,12:25:00,4,49,Lilienthal,9014152,Bremen Robert-Koch-Straße,5,1,1,81,81
2024-04-01,13:00:51,noon,2,13,1,Monday,1,1,12:25:00,4,49,Lilienthal,9014192,Bremen Sielhof,6,0,0,38,38
2024-04-01,13:00:51,noon,2,13,1,Monday,1,1,12:25:00,4,49,Lilienthal,9013971,Bremen Huckelriede,7,0,0,-12,0
2024-04-01,13:00:51,noon,2,13,1,Monday,1,1,12:25:00,4,49,Lilienthal,9014157,Bremen Rosenpfad,9,0,0,35,35
2024-04-01,13:00:51,noon,2,13,1,Monday,1,1,12:25:00,4,49,Lilienthal,9014294,Bremen Wilhelm-Kaisen-Brücke,14,1,1,79,79
2024-04-01,13:00:51,noon,2,13,1,Monday,1,1,12:25:00,4,49,Lilienthal,9013830,Bremen Domsheide,15,1,1,70,70
2024-04-01,13:00:51,noon,2,13,1,Monday,1,1,12:25:00,4,49,Lilienthal,9014183,Bremen Schüsselkorb,16,1,1,102,102
2024-04-01,13:00:51,noon,2,13,1,Monday,1,1,12:25:00,4,49,Lilienthal,9013943,Bremen Herdentor,17,1,1,135,135
2024-04-01,13:00:51,noon,2,13,1,Monday,1,1,12:25:00,4,49,Lilienthal,9013925,Bremen Hauptbahnhof,18,1,0,135,0
2024-04-01,13:00:51,noon,2,13,1,Monday,1,1,12:25:00,4,49,Lilienthal,9014141,Bremen Rembertistraße,19,0,0,16,46
2024-04-01,13:00:51,noon,2,13,1,Monday,1,1,12:25:00,4,49,Lilienthal,9014072,Bremen Metzer Straße,24,1,1,76,76
2024-04-01,13:00:51,noon,2,13,1,Monday,1,1,12:30:00,4,49,Arsten,9055728,Lilienthal,0,0,0,0,0
2024-04-01,13:00:51,noon,2,13,1,Monday,1,1,12:30:00,4,49,Arsten,9055739,Lilienthal Kutscher Behrens,1,0,1,56,147
2024-04-01,13:00:51,noon,2,13,1,Monday,1,1,12:30:00,4,49,Arsten,9013773,Bremen Borgfeld,10,1,1,187,187
2024-04-01,13:00:51,noon,2,13,1,Monday,1,1,12:30:00,4,49,Arsten,9013925,Bremen Hauptbahnhof,30,1,0,187,37
2024-04-01,13:00:51,noon,2,13,1,Monday,1,1,12:30:00,4,49,Arsten,9013943,Bremen Herdentor,31,0,0,7,7
2024-04-01,13:00:51,noon,2,13,1,Monday,1,1,12:30:00,4,49,Arsten,9014183,Bremen Schüsselkorb,32,0,0,37,37
2024-04-01,13:00:51,noon,2,13,1,Monday,1,1,12:30:00,4,49,Arsten,9014241,Bremen Twiedelftsweg,47,0,0,7,7
2024-04-01,13:00:51,noon,2,13,1,Monday,1,1,12:30:00,4,49,Arsten,9013716,Bremen Arsten,48,0,0,37,0
2024-04-01,13:00:51,noon,2,13,1,Monday,1,1,12:50:00,4,49,Arsten,9055728,Lilienthal,0,0,0,0,0
2024-04-01,13:00:51,noon,2,13,1,Monday,1,1,12:50:00,4,49,Arsten,9055739,Lilienthal Kutscher Behrens,1,1,1,72,72
2024-04-01,13:00:51,noon,2,13,1,Monday,1,1,12:50:00,4,49,Arsten,9055729,Lilienthal Auf dem Kamp,2,1,1,114,114
2024-04-01,13:00:51,noon,2,13,1,Monday,1,1,12:50:00,4,49,Arsten,9013925,Bremen Hauptbahnhof,30,1,0,114,0
2024-04-01,13:00:51,noon,2,13,1,Monday,1,1,12:50:00,4,49,Arsten,9013943,Bremen Herdentor,31,0,0,-30,-30
2024-04-01,13:00:51,noon,2,13,1,Monday,1,1,12:50:00,4,49,Arsten,9014183,Bremen Schüsselkorb,32,0,0,0,0
2024-04-01,13:00:51,noon,2,13,1,Monday,1,1,12:50:00,4,49,Arsten,9014241,Bremen Twiedelftsweg,47,0,0,-30,-30
2024-04-01,13:00:51,noon,2,13,1,Monday,1,1,12:50:00,4,49,Arsten,9013716,Bremen Arsten,48,0,0,0,0
2024-04-01,13:00:51,noon,2,13,1,Monday,1,1,12:59:00,24,32,Rablinghausen / Lankenauer Höft,9014090,Bremen Neue Vahr Nord,0,0,0,0,0
2024-04-01,13:00:51,noon,2,13,1,Monday,1,1,12:59:00,24,32,Rablinghausen / Lankenauer Höft,9013943,Bremen Herdentor,14,0,0,-30,-30
2024-04-01,13:00:51,noon,2,13,1,Monday,1,1,12:59:00,24,32,Rablinghausen / Lankenauer Höft,9014183,Bremen Schüsselkorb,15,0,0,0,0
2024-04-01,13:00:51,noon,2,13,1,Monday,1,1,12:32:00,24,32,Neue Vahr-Nord,9014034,Bremen Lankenauer Höft,0,0,0,0,0
2024-04-01,13:00:51,noon,2,13,1,Monday,1,1,12:32:00,24,32,Neue Vahr-Nord,9014153,Bremen Roccoweg,2,0,0,-30,-30
2024-04-01,13:00:51,noon,2,13,1,Monday,1,1,12:32:00,24,32,Neue Vahr-Nord,9013749,Bremen Bakeweg,3,0,0,0,0
2024-04-01,13:00:51,noon,2,13,1,Monday,1,1,12:12:00,24,32,Neue Vahr-Nord,9014034,Bremen Lankenauer Höft,0,0,0,0,0
2024-04-01,13:00:51,noon,2,13,1,Monday,1,1,12:12:00,24,32,Neue Vahr-Nord,9014134,Bremen Rablinghausen,1,0,0,-42,0
2024-04-01,13:00:51,noon,2,13,1,Monday,1,1,12:12:00,24,32,Neue Vahr-Nord,9014153,Bremen Roccoweg,2,0,0,-30,-30
2024-04-01,13:00:51,noon,2,13,1,Monday,1,1,12:12:00,24,32,Neue Vahr-Nord,9013749,Bremen Bakeweg,3,0,0,0,0
2024-04-01,13:00:51,noon,2,13,1,Monday,1,1,12:12:00,24,32,Neue Vahr-Nord,9014137,Bremen Rechtenflether Straße,6,0,0,46,46
2024-04-01,13:00:51,noon,2,13,1,Monday,1,1,12:12:00,24,32,Neue Vahr-Nord,9013837,Bremen Dötlinger Straße,8,0,0,6,6
2024-04-01,13:00:51,noon,2,13,1,Monday,1,1,12:12:00,24,32,Neue Vahr-Nord,9013972,Bremen Huder Straße,9,0,0,9,9
2024-04-01,13:00:51,noon,2,13,1,Monday,1,1,12:12:00,24,32,Neue Vahr-Nord,9013961,Bremen Hohentorsplatz,12,0,0,-34,0
2024-04-01,13:00:51,noon,2,13,1,Monday,1,1,12:12:00,24,32,Neue Vahr-Nord,9014287,Bremen Westerstraße,13,0,0,-44,0
2024-04-01,13:00:51,noon,2,13,1,Monday,1,1,12:12:00,24,32,Neue Vahr-Nord,9013698,Bremen Am Neuen Markt,14,0,0,-42,0
2024-04-01,13:00:51,noon,2,13,1,Monday,1,1,12:12:00,24,32,Neue Vahr-Nord,9014294,Bremen Wilhelm-Kaisen-Brücke,15,0,0,-78,0
2024-04-01,13:00:51,noon,2,13,1,Monday,1,1,12:12:00,24,32,Neue Vahr-Nord,9013830,Bremen Domsheide,16,0,0,-52,0
2024-04-01,13:00:51,noon,2,13,1,Monday,1,1,12:19:00,24,32,Rablinghausen / Lankenauer Höft,9014090,Bremen Neue Vahr Nord,0,0,0,0,0
2024-04-01,13:00:51,noon,2,13,1,Monday,1,1,12:19:00,24,32,Rablinghausen / Lankenauer Höft,9013729,Bremen August-Bebel-Allee,4,0,0,42,42
2024-04-01,13:00:51,noon,2,13,1,Monday,1,1,12:19:00,24,32,Rablinghausen / Lankenauer Höft,9013932,Bremen Heinrich-Hertz-Straße,5,0,0,42,12
2024-04-01,13:00:51,noon,2,13,1,Monday,1,1,12:19:00,24,32,Rablinghausen / Lankenauer Höft,9014253,Bremen Verdunstraße,9,0,0,47,47
2024-04-01,13:00:51,noon,2,13,1,Monday,1,1,12:19:00,24,32,Rablinghausen / Lankenauer Höft,9014200,Bremen St. Joseph-Stift,10,0,0,2,2
2024-04-01,13:00:51,noon,2,13,1,Monday,1,1,12:19:00,24,32,Rablinghausen / Lankenauer Höft,9013768,Bremen Hauptbahnhof-Nord/Messe,12,0,0,-28,0
2024-04-01,13:00:51,noon,2,13,1,Monday,1,1,12:19:00,24,32,Rablinghausen / Lankenauer Höft,9013925,Bremen Hauptbahnhof,13,0,0,-34,0
2024-04-01,13:00:51,noon,2,13,1,Monday,1,1,12:19:00,24,32,Rablinghausen / Lankenauer Höft,9013943,Bremen Herdentor,14,1,1,118,118
2024-04-01,13:00:51,noon,2,13,1,Monday,1,1,12:19:00,24,32,Rablinghausen / Lankenauer Höft,9014183,Bremen Schüsselkorb,15,1,1,148,148
2024-04-01,13:00:51,noon,2,13,1,Monday,1,1,12:52:00,24,32,Neue Vahr-Nord,9014034,Bremen Lankenauer Höft,0,0,0,0,0
2024-04-01,13:00:51,noon,2,13,1,Monday,1,1,12:52:00,24,32,Neue Vahr-Nord,9014153,Bremen Roccoweg,2,0,0,-30,-30
2024-04-01,13:00:51,noon,2,13,1,Monday,1,1,12:52:00,24,32,Neue Vahr-Nord,9013749,Bremen Bakeweg,3,0,0,0,0
2024-04-01,13:00:51,noon,2,13,1,Monday,1,1,12:39:00,24,32,Rablinghausen / Lankenauer Höft,9014090,Bremen Neue Vahr Nord,0,0,0,0,0
2024-04-01,13:00:51,noon,2,13,1,Monday,1,1,12:39:00,24,32,Rablinghausen / Lankenauer Höft,9013943,Bremen Herdentor,14,0,0,-30,-30
2024-04-01,13:00:51,noon,2,13,1,Monday,1,1,12:39:00,24,32,Rablinghausen / Lankenauer Höft,9014183,Bremen Schüsselkorb,15,0,0,0,0
2024-04-01,13:00:51,noon,2,13,1,Monday,1,1,12:46:00,41,19,Bf Mahndorf / 39 Weserpark-Süd,9014285,Bremen Weserwehr,0,0,0,0,0
2024-04-01,13:00:51,noon,2,13,1,Monday,1,1,12:46:00,41,19,Bf Mahndorf / 39 Weserpark-Süd,9013917,Bremen Hannoversche Straße,2,0,0,-72,0
2024-04-01,13:00:51,noon,2,13,1,Monday,1,1,12:46:00,41,19,Bf Mahndorf / 39 Weserpark-Süd,9013894,Bremen Glockenstraße/Bf Hemelingen,3,0,0,-60,0
2024-04-01,13:00:51,noon,2,13,1,Monday,1,1,12:48:00,27,34,Brinkum-Nord / IKEA-Marktkauf,9014277,Bremen Weidedamm-Nord,0,0,0,0,0
2024-04-01,13:00:51,noon,2,13,1,Monday,1,1,12:48:00,27,34,Brinkum-Nord / IKEA-Marktkauf,9014161,Bremen Rudolf-Alexander-Schröder-Straße,1,0,0,15,15
2024-04-01,13:00:51,noon,2,13,1,Monday,1,1,12:48:00,27,34,Brinkum-Nord / IKEA-Marktkauf,9014144,Bremen Ricarda-Huch-Straße,2,0,0,45,45
2024-04-01,13:00:51,noon,2,13,1,Monday,1,1,12:48:00,27,34,Brinkum-Nord / IKEA-Marktkauf,9013983,Bremen Innsbrucker Straße,3,0,0,46,46
2024-04-01,13:00:51,noon,2,13,1,Monday,1,1,12:48:00,27,34,Brinkum-Nord / IKEA-Marktkauf,9014250,Bremen Utbremer Ring,4,1,1,76,76
2024-04-01,13:00:51,noon,2,13,1,Monday,1,1,12:48:00,27,34,Brinkum-Nord / IKEA-Marktkauf,9013925,Bremen Hauptbahnhof,10,1,0,76,0
2024-04-01,13:00:51,noon,2,13,1,Monday,1,1,12:43:00,27,34,Weidedamm-Nord,9014988,Brinkum(Stuhr) IKEA/Marktkauf,0,0,0,0,0
2024-04-01,13:00:51,noon,2,13,1,Monday,1,1,12:43:00,27,34,Weidedamm-Nord,9014161,Bremen Rudolf-Alexander-Schröder-Straße,32,0,0,-30,-30
2024-04-01,13:00:51,noon,2,13,1,Monday,1,1,12:43:00,27,34,Weidedamm-Nord,9014277,Bremen Weidedamm-Nord,33,0,0,0,0
2024-04-01,13:00:51,noon,2,13,1,Monday,1,1,12:28:00,27,34,Brinkum-Nord / IKEA-Marktkauf,9014277,Bremen Weidedamm-Nord,0,0,0,0,0
2024-04-01,13:00:51,noon,2,13,1,Monday,1,1,12:28:00,27,34,Brinkum-Nord / IKEA-Marktkauf,9014161,Bremen Rudolf-Alexander-Schröder-Straße,1,0,0,10,10
2024-04-01,13:00:51,noon,2,13,1,Monday,1,1,12:28:00,27,34,Brinkum-Nord / IKEA-Marktkauf,9014144,Bremen Ricarda-Huch-Straße,2,0,0,40,40
2024-04-01,13:00:51,noon,2,13,1,Monday,1,1,12:28:00,27,34,Brinkum-Nord / IKEA-Marktkauf,9013983,Bremen Innsbrucker Straße,3,0,0,10,10
2024-04-01,13:00:51,noon,2,13,1,Monday,1,1,12:28:00,27,34,Brinkum-Nord / IKEA-Marktkauf,9014250,Bremen Utbremer Ring,4,0,0,40,40
2024-04-01,13:00:51,noon,2,13,1,Monday,1,1,12:28:00,27,34,Brinkum-Nord / IKEA-Marktkauf,9013939,Bremen Hemmstraße,5,0,1,50,79
2024-04-01,13:00:51,noon,2,13,1,Monday,1,1,12:28:00,27,34,Brinkum-Nord / IKEA-Marktkauf,9013804,Bremen Bürgerpark,8,1,1,111,111
2024-04-01,13:00:51,noon,2,13,1,Monday,1,1,12:28:00,27,34,Brinkum-Nord / IKEA-Marktkauf,9013925,Bremen Hauptbahnhof,10,1,0,81,54
2024-04-01,13:00:51,noon,2,13,1,Monday,1,1,12:28:00,27,34,Brinkum-Nord / IKEA-Marktkauf,9014287,Bremen Westerstraße,13,1,1,89,89
2024-04-01,13:00:51,noon,2,13,1,Monday,1,1,12:28:00,27,34,Brinkum-Nord / IKEA-Marktkauf,9013971,Bremen Huckelriede,23,1,0,89,0
2024-04-01,13:00:51,noon,2,13,1,Monday,1,1,12:23:00,27,34,Weidedamm-Nord,9014019,Bremen Krimpelweg,8,0,0,-68,-68
2024-04-01,13:00:51,noon,2,13,1,Monday,1,1,12:23:00,27,34,Weidedamm-Nord,9013720,Bremen Arsterdamm,9,0,0,-68,0
2024-04-01,13:00:51,noon,2,13,1,Monday,1,1,12:23:00,27,34,Weidedamm-Nord,9013971,Bremen Huckelriede,10,0,0,-110,0
2024-04-01,13:00:51,noon,2,13,1,Monday,1,1,12:23:00,27,34,Weidedamm-Nord,9014299,Bremen Willigstraße,12,0,0,35,35
2024-04-01,13:00:51,noon,2,13,1,Monday,1,1,12:23:00,27,34,Weidedamm-Nord,9013730,Bremen August-Hinrichs-Straße,13,1,0,70,0
2024-04-01,13:00:51,noon,2,13,1,Monday,1,1,12:23:00,27,34,Weidedamm-Nord,9014161,Bremen Rudolf-Alexander-Schröder-Straße,32,0,0,-30,-30
2024-04-01,13:00:51,noon,2,13,1,Monday,1,1,12:23:00,27,34,Weidedamm-Nord,9014277,Bremen Weidedamm-Nord,33,0,0,0,0
2024-04-01,13:00:51,noon,2,13,1,Monday,1,1,12:23:00,6,25,Flughafen,9014243,Bremen Universität-Nord,0,0,1,0,106
2024-04-01,13:00:51,noon,2,13,1,Monday,1,1,12:23:00,6,25,Flughafen,9014040,Bremen Lise-Meitner-Straße,3,1,1,146,146
2024-04-01,13:00:51,noon,2,13,1,Monday,1,1,12:23:00,6,25,Flughafen,9013768,Bremen Hauptbahnhof-Nord/Messe,12,1,1,186,186
2024-04-01,13:00:51,noon,2,13,1,Monday,1,1,12:23:00,6,25,Flughafen,9013925,Bremen Hauptbahnhof,13,1,1,185,127
2024-04-01,13:00:51,noon,2,13,1,Monday,1,1,12:23:00,6,25,Flughafen,9013943,Bremen Herdentor,14,1,1,213,213
2024-04-01,13:00:51,noon,2,13,1,Monday,1,1,12:23:00,6,25,Flughafen,9014183,Bremen Schüsselkorb,15,1,1,191,191
2024-04-01,13:00:51,noon,2,13,1,Monday,1,1,12:23:00,6,25,Flughafen,9013830,Bremen Domsheide,16,1,1,198,198
2024-04-01,13:00:51,noon,2,13,1,Monday,1,1,12:23:00,6,25,Flughafen,9014235,Bremen Theater am Leibnizplatz,18,1,1,160,160
2024-04-01,13:00:51,noon,2,13,1,Monday,1,1,12:23:00,6,25,Flughafen,9013888,Bremen Gastfeldstraße,19,1,1,112,142
2024-04-01,13:00:51,noon,2,13,1,Monday,1,1,12:23:00,6,25,Flughafen,9014092,Bremen Neuenlander Kämpe,22,1,1,184,184
2024-04-01,13:00:51,noon,2,13,1,Monday,1,1,12:43:00,6,25,Flughafen,9014243,Bremen Universität-Nord,0,0,0,0,0
2024-04-01,13:00:51,noon,2,13,1,Monday,1,1,12:43:00,6,25,Flughafen,9014040,Bremen Lise-Meitner-Straße,3,0,0,45,45
2024-04-01,13:00:51,noon,2,13,1,Monday,1,1,12:43:00,6,25,Flughafen,9013761,Bremen Berufsbildungswerk,4,1,1,86,86
2024-04-01,13:00:51,noon,2,13,1,Monday,1,1,12:43:00,6,25,Flughafen,9014148,Bremen Riensberg,5,1,1,119,119
2024-04-01,13:00:51,noon,2,13,1,Monday,1,1,12:43:00,6,25,Flughafen,9013703,Bremen Am Stern,11,1,1,154,154
2024-04-01,13:00:51,noon,2,13,1,Monday,1,1,12:43:00,6,25,Flughafen,9013925,Bremen Hauptbahnhof,13,1,0,154,4
2024-04-01,13:00:51,noon,2,13,1,Monday,1,1,12:43:00,6,25,Flughafen,9013943,Bremen Herdentor,14,0,0,-26,-26
2024-04-01,13:00:51,noon,2,13,1,Monday,1,1,12:43:00,6,25,Flughafen,9014183,Bremen Schüsselkorb,15,0,0,0,0
2024-04-01,13:00:51,noon,2,13,1,Monday,1,1,12:43:00,6,25,Universität,9013864,Bremen Flughafen-Süd,0,0,0,0,0
2024-04-01,13:00:51,noon,2,13,1,Monday,1,1,12:43:00,6,25,Universität,9013733,Bremen BSAG-Zentrum,3,0,0,36,36
2024-04-01,13:00:51,noon,2,13,1,Monday,1,1,12:43:00,6,25,Universität,9013888,Bremen Gastfeldstraße,5,1,1,68,68
2024-04-01,13:00:51,noon,2,13,1,Monday,1,1,12:43:00,6,25,Universität,9014235,Bremen Theater am Leibnizplatz,6,0,0,20,20
2024-04-01,13:00:51,noon,2,13,1,Monday,1,1,12:43:00,6,25,Universität,9013830,Bremen Domsheide,8,0,0,4,4
2024-04-01,13:00:51,noon,2,13,1,Monday,1,1,12:43:00,6,25,Universität,9014183,Bremen Schüsselkorb,9,0,0,34,34
2024-04-01,13:00:51,noon,2,13,1,Monday,1,1,12:43:00,6,25,Universität,9013943,Bremen Herdentor,10,1,1,72,72
2024-04-01,13:00:51,noon,2,13,1,Monday,1,1,12:43:00,6,25,Universität,9013925,Bremen Hauptbahnhof,11,1,0,72,0
2024-04-01,13:00:51,noon,2,13,1,Monday,1,1,12:23:00,6,25,Universität,9013864,Bremen Flughafen-Süd,0,0,0,0,0
2024-04-01,13:00:51,noon,2,13,1,Monday,1,1,12:23:00,6,25,Universität,9014169,Bremen Schleiermacherstraße,4,0,0,38,38
2024-04-01,13:00:51,noon,2,13,1,Monday,1,1,12:23:00,6,25,Universität,9014235,Bremen Theater am Leibnizplatz,6,0,0,45,45
2024-04-01,13:00:51,noon,2,13,1,Monday,1,1,12:23:00,6,25,Universität,9013830,Bremen Domsheide,8,0,0,5,5
2024-04-01,13:00:51,noon,2,13,1,Monday,1,1,12:23:00,6,25,Universität,9013925,Bremen Hauptbahnhof,11,0,0,5,0
2024-04-01,13:00:51,noon,2,13,1,Monday,1,1,13:00:00,58,15,Bremen Roland-Center,9014155,Bremen Roland-Center,0,0,0,0,0
2024-04-01,13:00:51,noon,2,13,1,Monday,1,1,12:39:00,8,22,Huchting,9014022,Bremen Kulenkampffallee,0,0,0,0,0
2024-04-01,13:00:51,noon,2,13,1,Monday,1,1,12:39:00,8,22,Huchting,9013779,Bremen Brahmsstraße,4,0,0,42,42
2024-04-01,13:00:51,noon,2,13,1,Monday,1,1,12:39:00,8,22,Huchting,9013768,Bremen Hauptbahnhof-Nord/Messe,6,1,1,67,98
2024-04-01,13:00:51,noon,2,13,1,Monday,1,1,12:39:00,8,22,Huchting,9013925,Bremen Hauptbahnhof,7,0,0,55,0
2024-04-01,13:00:51,noon,2,13,1,Monday,1,1,12:39:00,8,22,Huchting,9013943,Bremen Herdentor,8,1,1,60,60
2024-04-01,13:00:51,noon,2,13,1,Monday,1,1,12:39:00,8,22,Huchting,9014183,Bremen Schüsselkorb,9,0,0,38,38
2024-04-01,13:00:51,noon,2,13,1,Monday,1,1,12:39:00,8,22,Huchting,9013830,Bremen Domsheide,10,0,0,8,8
2024-04-01,13:00:51,noon,2,13,1,Monday,1,1,12:39:00,8,22,Huchting,9014294,Bremen Wilhelm-Kaisen-Brücke,11,0,0,44,44
2024-04-01,13:00:51,noon,2,13,1,Monday,1,1,12:39:00,8,22,Huchting,9013698,Bremen Am Neuen Markt,12,1,1,81,81
2024-04-01,13:00:51,noon,2,13,1,Monday,1,1,12:49:00,8,22,Kulenkampffallee,9014155,Bremen Roland-Center,0,0,0,0,0
2024-04-01,13:00:51,noon,2,13,1,Monday,1,1,12:49:00,8,22,Kulenkampffallee,9014099,Bremen Norderländer Straße,1,0,0,35,35
2024-04-01,13:00:51,noon,2,13,1,Monday,1,1,12:49:00,8,22,Kulenkampffallee,9013954,Bremen Hochschule Bremen,7,1,1,65,65
2024-04-01,13:00:51,noon,2,13,1,Monday,1,1,12:49:00,8,22,Kulenkampffallee,9013925,Bremen Hauptbahnhof,14,1,0,65,0
2024-04-01,13:00:51,noon,2,13,1,Monday,1,1,12:59:00,8,22,Huchting,9014022,Bremen Kulenkampffallee,0,0,0,0,0
2024-04-01,13:00:51,noon,2,13,1,Monday,1,1,12:59:00,8,22,Huchting,9013943,Bremen Herdentor,8,0,0,-30,-30
2024-04-01,13:00:51,noon,2,13,1,Monday,1,1,12:59:00,8,22,Huchting,9014183,Bremen Schüsselkorb,9,0,0,0,0
2024-04-01,13:00:51,noon,2,13,1,Monday,1,1,12:29:00,8,22,Kulenkampffallee,9014155,Bremen Roland-Center,0,0,0,0,0
2024-04-01,13:00:51,noon,2,13,1,Monday,1,1,12:29:00,8,22,Kulenkampffallee,9014093,Bremen Neuenlander Straße,5,0,0,36,36
2024-04-01,13:00:51,noon,2,13,1,Monday,1,1,12:29:00,8,22,Kulenkampffallee,9014122,Bremen Pappelstraße,6,0,1,42,72
2024-04-01,13:00:51,noon,2,13,1,Monday,1,1,12:29:00,8,22,Kulenkampffallee,9014294,Bremen Wilhelm-Kaisen-Brücke,10,0,0,21,21
2024-04-01,13:00:51,noon,2,13,1,Monday,1,1,12:29:00,8,22,Kulenkampffallee,9013830,Bremen Domsheide,11,0,0,19,19
2024-04-01,13:00:51,noon,2,13,1,Monday,1,1,12:29:00,8,22,Kulenkampffallee,9014183,Bremen Schüsselkorb,12,0,0,56,56
2024-04-01,13:00:51,noon,2,13,1,Monday,1,1,12:29:00,8,22,Kulenkampffallee,9013925,Bremen Hauptbahnhof,14,1,0,72,46
2024-04-01,13:00:51,noon,2,13,1,Monday,1,1,12:29:00,8,22,Kulenkampffallee,9013768,Bremen Hauptbahnhof-Nord/Messe,15,0,0,16,16
2024-04-01,13:00:51,noon,2,13,1,Monday,1,1,12:29:00,8,22,Kulenkampffallee,9013779,Bremen Brahmsstraße,17,0,0,51,51
2024-04-01,13:00:51,noon,2,13,1,Monday,1,1,12:29:00,8,22,Kulenkampffallee,9013814,Bremen Crüsemannallee,19,1,1,82,82
2024-04-01,13:00:51,noon,2,13,1,Monday,1,1,12:45:00,26,53,Kattenturm / Klinikum LDW,9103706,Bremen Überseestadt-Nord,0,0,0,0,0
2024-04-01,13:00:51,noon,2,13,1,Monday,1,1,12:45:00,26,53,Kattenturm / Klinikum LDW,9103704,Bremen Ehrenfelsstraße,1,0,0,13,13
2024-04-01,13:00:51,noon,2,13,1,Monday,1,1,12:45:00,26,53,Kattenturm / Klinikum LDW,9014194,Bremen Silbermannstraße,2,0,0,6,6
2024-04-01,13:00:51,noon,2,13,1,Monday,1,1,12:45:00,26,53,Kattenturm / Klinikum LDW,9014311,Bremen Überseetor,4,0,0,35,35
2024-04-01,13:00:51,noon,2,13,1,Monday,1,1,12:45:00,26,53,Kattenturm / Klinikum LDW,9014267,Bremen Waller Ring,6,0,0,-41,0
2024-04-01,13:00:51,noon,2,13,1,Monday,1,1,12:45:00,26,53,Kattenturm / Klinikum LDW,9014033,Bremen Lange Reihe,7,0,0,6,37
2024-04-01,13:00:51,noon,2,13,1,Monday,1,1,12:45:00,26,53,Kattenturm / Klinikum LDW,9014265,Bremen Bahnhof Walle,8,1,1,67,67
2024-04-01,13:00:51,noon,2,13,1,Monday,1,1,12:45:00,26,53,Kattenturm / Klinikum LDW,9013925,Bremen Hauptbahnhof,17,1,0,67,0
2024-04-01,13:00:51,noon,2,13,1,Monday,1,1,12:45:00,26,53,Kattenturm / Klinikum LDW,9001282,Bremen Fontanestraße,34,0,0,-30,-30
2024-04-01,13:00:51,noon,2,13,1,Monday,1,1,12:45:00,26,53,Kattenturm / Klinikum LDW,9013910,Bremen Habenhauser Brückenstraße,35,0,0,0,0
2024-04-01,13:00:51,noon,2,13,1,Monday,1,1,12:45:00,26,53,Kattenturm / Klinikum LDW,9001281,Bremen Schlehenweg,37,0,0,-30,-30
2024-04-01,13:00:51,noon,2,13,1,Monday,1,1,12:45:00,26,53,Kattenturm / Klinikum LDW,9014211,Bremen Staustraße,38,0,0,0,0
2024-04-01,13:00:51,noon,2,13,1,Monday,1,1,12:45:00,26,53,Kattenturm / Klinikum LDW,9014059,Bremen Martin-Buber-Straße,47,0,0,-30,-30
2024-04-01,13:00:51,noon,2,13,1,Monday,1,1,12:45:00,26,53,Kattenturm / Klinikum LDW,9013783,Bremen Brenningstraße,48,0,0,0,0
2024-04-01,13:00:51,noon,2,13,1,Monday,1,1,12:25:00,26,53,Kattenturm / Klinikum LDW,9103706,Bremen Überseestadt-Nord,0,0,0,0,42
2024-04-01,13:00:51,noon,2,13,1,Monday,1,1,12:25:00,26,53,Kattenturm / Klinikum LDW,9103704,Bremen Ehrenfelsstraße,1,1,1,80,80
2024-04-01,13:00:51,noon,2,13,1,Monday,1,1,12:25:00,26,53,Kattenturm / Klinikum LDW,9014194,Bremen Silbermannstraße,2,0,0,44,44
2024-04-01,13:00:51,noon,2,13,1,Monday,1,1,12:25:00,26,53,Kattenturm / Klinikum LDW,9014311,Bremen Überseetor,4,0,1,58,89
2024-04-01,13:00:51,noon,2,13,1,Monday,1,1,12:25:00,26,53,Kattenturm / Klinikum LDW,9014267,Bremen Waller Ring,6,0,0,50,50
2024-04-01,13:00:51,noon,2,13,1,Monday,1,1,12:25:00,26,53,Kattenturm / Klinikum LDW,9014033,Bremen Lange Reihe,7,1,1,106,106
2024-04-01,13:00:51,noon,2,13,1,Monday,1,1,12:25:00,26,53,Kattenturm / Klinikum LDW,9014265,Bremen Bahnhof Walle,8,1,1,103,103
2024-04-01,13:00:51,noon,2,13,1,Monday,1,1,12:25:00,26,53,Kattenturm / Klinikum LDW,9013965,Bremen Holsteiner Straße,9,1,1,65,65
2024-04-01,13:00:51,noon,2,13,1,Monday,1,1,12:25:00,26,53,Kattenturm / Klinikum LDW,9013826,Bremen Dithmarscher Freiheit,10,1,1,67,67
2024-04-01,13:00:51,noon,2,13,1,Monday,1,1,12:25:00,26,53,Kattenturm / Klinikum LDW,9013925,Bremen Hauptbahnhof,17,1,0,68,42
2024-04-01,13:00:51,noon,2,13,1,Monday,1,1,12:25:00,26,53,Kattenturm / Klinikum LDW,9013679,Bremen Am Brill (Bgm.-Smidt-Straße),19,1,1,80,80
2024-04-01,13:00:51,noon,2,13,1,Monday,1,1,12:25:00,26,53,Kattenturm / Klinikum LDW,9013971,Bremen Huckelriede,30,1,0,80,0
2024-04-01,13:00:51,noon,2,13,1,Monday,1,1,12:25:00,26,53,Kattenturm / Klinikum LDW,9001282,Bremen Fontanestraße,34,0,0,-30,-30
2024-04-01,13:00:51,noon,2,13,1,Monday,1,1,12:25:00,26,53,Kattenturm / Klinikum LDW,9013910,Bremen Habenhauser Brückenstraße,35,0,0,0,0
2024-04-01,13:00:51,noon,2,13,1,Monday,1,1,12:25:00,26,53,Kattenturm / Klinikum LDW,9001281,Bremen Schlehenweg,37,0,0,-30,-30
2024-04-01,13:00:51,noon,2,13,1,Monday,1,1,12:25:00,26,53,Kattenturm / Klinikum LDW,9014211,Bremen Staustraße,38,0,0,0,0
2024-04-01,13:00:51,noon,2,13,1,Monday,1,1,12:25:00,26,53,Kattenturm / Klinikum LDW,9014059,Bremen Martin-Buber-Straße,47,0,0,-30,-30
2024-04-01,13:00:51,noon,2,13,1,Monday,1,1,12:25:00,26,53,Kattenturm / Klinikum LDW,9013783,Bremen Brenningstraße,48,0,0,0,0
2024-04-01,13:00:51,noon,2,13,1,Monday,1,1,12:26:00,26,53,Überseestadt,9014008,Bremen Klinikum Haupteingang,0,0,0,0,0
2024-04-01,13:00:51,noon,2,13,1,Monday,1,1,12:26:00,26,53,Überseestadt,9013999,Bremen Kattenturm-Mitte,2,0,0,42,42
2024-04-01,13:00:51,noon,2,13,1,Monday,1,1,12:26:00,26,53,Überseestadt,9013889,Bremen Gemeinschaftszentrum Obervieland,3,0,0,12,12
2024-04-01,13:00:51,noon,2,13,1,Monday,1,1,12:26:00,26,53,Überseestadt,9013783,Bremen Brenningstraße,4,1,1,90,90
2024-04-01,13:00:51,noon,2,13,1,Monday,1,1,12:26:00,26,53,Überseestadt,9014059,Bremen Martin-Buber-Straße,5,0,0,59,59
2024-04-01,13:00:51,noon,2,13,1,Monday,1,1,12:26:00,26,53,Überseestadt,9013808,Bremen Carsten-Dreßler-Straße,6,1,1,78,78
2024-04-01,13:00:51,noon,2,13,1,Monday,1,1,12:26:00,26,53,Überseestadt,9013982,Bremen In der Laake,7,1,1,108,108
2024-04-01,13:00:51,noon,2,13,1,Monday,1,1,12:26:00,26,53,Überseestadt,9013946,Bremen Hermann-Helms-Straße,10,1,1,73,73
2024-04-01,13:00:51,noon,2,13,1,Monday,1,1,12:26:00,26,53,Überseestadt,9001281,Bremen Schlehenweg,15,1,1,134,134
2024-04-01,13:00:51,noon,2,13,1,Monday,1,1,12:26:00,26,53,Überseestadt,9013874,Bremen Friedrich-Engels-Straße,16,1,1,164,164
2024-04-01,13:00:51,noon,2,13,1,Monday,1,1,12:26:00,26,53,Überseestadt,9013910,Bremen Habenhauser Brückenstraße,17,1,1,164,134
2024-04-01,13:00:51,noon,2,13,1,Monday,1,1,12:26:00,26,53,Überseestadt,9001282,Bremen Fontanestraße,18,1,1,104,104
2024-04-01,13:00:51,noon,2,13,1,Monday,1,1,12:26:00,26,53,Überseestadt,9013859,Bremen Fellendsweg,19,1,1,134,134
2024-04-01,13:00:51,noon,2,13,1,Monday,1,1,12:26:00,26,53,Überseestadt,9013988,Bremen Helene-Lange-Straße,20,1,1,105,105
2024-04-01,13:00:51,noon,2,13,1,Monday,1,1,12:26:00,26,53,Überseestadt,9013971,Bremen Huckelriede,22,0,1,35,96
2024-04-01,13:00:51,noon,2,13,1,Monday,1,1,12:26:00,26,53,Überseestadt,9014217,Bremen Stenumer Straße,23,1,1,132,132
2024-04-01,13:00:51,noon,2,13,1,Monday,1,1,12:26:00,26,53,Überseestadt,9013730,Bremen August-Hinrichs-Straße,25,1,0,132,42
2024-04-01,13:00:51,noon,2,13,1,Monday,1,1,12:26:00,26,53,Überseestadt,9013925,Bremen Hauptbahnhof,35,0,0,42,0
2024-04-01,13:00:51,noon,2,13,1,Monday,1,1,12:26:00,26,53,Überseestadt,9014194,Bremen Silbermannstraße,50,0,0,-30,-30
2024-04-01,13:00:51,noon,2,13,1,Monday,1,1,12:26:00,26,53,Überseestadt,9103704,Bremen Ehrenfelsstraße,51,0,0,0,0
2024-04-01,13:00:51,noon,2,13,1,Monday,1,1,12:46:00,26,53,Überseestadt,9014008,Bremen Klinikum Haupteingang,0,0,0,0,0
2024-04-01,13:00:51,noon,2,13,1,Monday,1,1,12:46:00,26,53,Überseestadt,9013999,Bremen Kattenturm-Mitte,2,0,0,47,47
2024-04-01,13:00:51,noon,2,13,1,Monday,1,1,12:46:00,26,53,Überseestadt,9013889,Bremen Gemeinschaftszentrum Obervieland,3,0,0,17,17
2024-04-01,13:00:51,noon,2,13,1,Monday,1,1,12:46:00,26,53,Überseestadt,9013783,Bremen Brenningstraße,4,1,1,106,106
2024-04-01,13:00:51,noon,2,13,1,Monday,1,1,12:46:00,26,53,Überseestadt,9013808,Bremen Carsten-Dreßler-Straße,6,1,1,76,76
2024-04-01,13:00:51,noon,2,13,1,Monday,1,1,12:46:00,26,53,Überseestadt,9013982,Bremen In der Laake,7,1,1,106,106
2024-04-01,13:00:51,noon,2,13,1,Monday,1,1,12:46:00,26,53,Überseestadt,9014191,Bremen Senator-Theil-Straße,11,1,1,67,67
2024-04-01,13:00:51,noon,2,13,1,Monday,1,1,12:46:00,26,53,Überseestadt,9014131,Bremen Piependamm,12,0,0,37,37
2024-04-01,13:00:51,noon,2,13,1,Monday,1,1,12:46:00,26,53,Überseestadt,9001281,Bremen Schlehenweg,15,0,0,7,7
2024-04-01,13:00:51,noon,2,13,1,Monday,1,1,12:46:00,26,53,Überseestadt,9013874,Bremen Friedrich-Engels-Straße,16,0,0,37,37
2024-04-01,13:00:51,noon,2,13,1,Monday,1,1,12:46:00,26,53,Überseestadt,9013910,Bremen Habenhauser Brückenstraße,17,0,0,37,7
2024-04-01,13:00:51,noon,2,13,1,Monday,1,1,12:46:00,26,53,Überseestadt,9001282,Bremen Fontanestraße,18,0,0,-23,-23
2024-04-01,13:00:51,noon,2,13,1,Monday,1,1,12:46:00,26,53,Überseestadt,9013859,Bremen Fellendsweg,19,0,0,7,7
2024-04-01,13:00:51,noon,2,13,1,Monday,1,1,12:46:00,26,53,Überseestadt,9013730,Bremen August-Hinrichs-Straße,25,0,0,7,0
2024-04-01,13:00:51,noon,2,13,1,Monday,1,1,12:46:00,26,53,Überseestadt,9014194,Bremen Silbermannstraße,50,0,0,-30,-30
2024-04-01,13:00:51,noon,2,13,1,Monday,1,1,12:46:00,26,53,Überseestadt,9103704,Bremen Ehrenfelsstraße,51,0,0,0,0
2024-04-01,13:00:51,noon,2,13,1,Monday,1,1,12:05:00,26,53,Kattenturm / Klinikum LDW,9103706,Bremen Überseestadt-Nord,0,0,0,0,0
2024-04-01,13:00:51,noon,2,13,1,Monday,1,1,12:05:00,26,53,Kattenturm / Klinikum LDW,9103704,Bremen Ehrenfelsstraße,1,0,0,-30,-30
2024-04-01,13:00:51,noon,2,13,1,Monday,1,1,12:05:00,26,53,Kattenturm / Klinikum LDW,9014194,Bremen Silbermannstraße,2,0,0,0,0
2024-04-01,13:00:51,noon,2,13,1,Monday,1,1,12:05:00,26,53,Kattenturm / Klinikum LDW,9014033,Bremen Lange Reihe,7,0,0,-30,-30
2024-04-01,13:00:51,noon,2,13,1,Monday,1,1,12:05:00,26,53,Kattenturm / Klinikum LDW,9014265,Bremen Bahnhof Walle,8,0,0,0,0
2024-04-01,13:00:51,noon,2,13,1,Monday,1,1,12:05:00,26,53,Kattenturm / Klinikum LDW,9001282,Bremen Fontanestraße,34,0,0,-30,-30
2024-04-01,13:00:51,noon,2,13,1,Monday,1,1,12:05:00,26,53,Kattenturm / Klinikum LDW,9013910,Bremen Habenhauser Brückenstraße,35,0,0,0,0
2024-04-01,13:00:51,noon,2,13,1,Monday,1,1,12:05:00,26,53,Kattenturm / Klinikum LDW,9001281,Bremen Schlehenweg,37,0,0,-30,-30
2024-04-01,13:00:51,noon,2,13,1,Monday,1,1,12:05:00,26,53,Kattenturm / Klinikum LDW,9014211,Bremen Staustraße,38,0,0,0,0
2024-04-01,13:00:51,noon,2,13,1,Monday,1,1,12:05:00,26,53,Kattenturm / Klinikum LDW,9014059,Bremen Martin-Buber-Straße,47,0,0,-30,-30
2024-04-01,13:00:51,noon,2,13,1,Monday,1,1,12:05:00,26,53,Kattenturm / Klinikum LDW,9013783,Bremen Brenningstraße,48,0,0,0,0
2024-04-01,13:00:51,noon,2,13,1,Monday,1,1,12:06:00,26,53,Überseestadt,9014008,Bremen Klinikum Haupteingang,0,0,0,0,0
2024-04-01,13:00:51,noon,2,13,1,Monday,1,1,12:06:00,26,53,Überseestadt,9013999,Bremen Kattenturm-Mitte,2,0,0,36,36
2024-04-01,13:00:51,noon,2,13,1,Monday,1,1,12:06:00,26,53,Überseestadt,9013889,Bremen Gemeinschaftszentrum Obervieland,3,1,1,60,60
2024-04-01,13:00:51,noon,2,13,1,Monday,1,1,12:06:00,26,53,Überseestadt,9013783,Bremen Brenningstraße,4,1,1,90,90
2024-04-01,13:00:51,noon,2,13,1,Monday,1,1,12:06:00,26,53,Überseestadt,9013808,Bremen Carsten-Dreßler-Straße,6,1,1,60,60
2024-04-01,13:00:51,noon,2,13,1,Monday,1,1,12:06:00,26,53,Überseestadt,9013982,Bremen In der Laake,7,1,1,127,127
2024-04-01,13:00:51,noon,2,13,1,Monday,1,1,12:06:00,26,53,Überseestadt,9014191,Bremen Senator-Theil-Straße,11,1,1,85,85
2024-04-01,13:00:51,noon,2,13,1,Monday,1,1,12:06:00,26,53,Überseestadt,9014129,Bremen Pfarrfeldsweg,13,0,0,54,54
2024-04-01,13:00:51,noon,2,13,1,Monday,1,1,12:06:00,26,53,Überseestadt,9014211,Bremen Staustraße,14,1,1,84,84
2024-04-01,13:00:51,noon,2,13,1,Monday,1,1,12:06:00,26,53,Überseestadt,9001281,Bremen Schlehenweg,15,1,1,135,135
2024-04-01,13:00:51,noon,2,13,1,Monday,1,1,12:06:00,26,53,Überseestadt,9013874,Bremen Friedrich-Engels-Straße,16,1,1,165,165
2024-04-01,13:00:51,noon,2,13,1,Monday,1,1,12:06:00,26,53,Überseestadt,9013910,Bremen Habenhauser Brückenstraße,17,1,1,131,71
2024-04-01,13:00:51,noon,2,13,1,Monday,1,1,12:06:00,26,53,Überseestadt,9001282,Bremen Fontanestraße,18,0,0,41,41
2024-04-01,13:00:51,noon,2,13,1,Monday,1,1,12:06:00,26,53,Überseestadt,9013859,Bremen Fellendsweg,19,1,1,111,111
2024-04-01,13:00:51,noon,2,13,1,Monday,1,1,12:06:00,26,53,Überseestadt,9013988,Bremen Helene-Lange-Straße,20,1,1,72,72
2024-04-01,13:00:51,noon,2,13,1,Monday,1,1,12:06:00,26,53,Überseestadt,9013971,Bremen Huckelriede,22,0,0,-46,0
2024-04-01,13:00:51,noon,2,13,1,Monday,1,1,12:06:00,26,53,Überseestadt,9014217,Bremen Stenumer Straße,23,0,0,47,47
2024-04-01,13:00:51,noon,2,13,1,Monday,1,1,12:06:00,26,53,Überseestadt,9013730,Bremen August-Hinrichs-Straße,25,0,0,47,0
2024-04-01,13:00:51,noon,2,13,1,Monday,1,1,12:06:00,26,53,Überseestadt,9013897,Bremen Gottfried-Menken-Straße,26,0,0,-42,0
2024-04-01,13:00:51,noon,2,13,1,Monday,1,1,12:06:00,26,53,Überseestadt,9014122,Bremen Pappelstraße,30,0,0,-84,0
2024-04-01,13:00:51,noon,2,13,1,Monday,1,1,12:06:00,26,53,Überseestadt,9013679,Bremen Am Brill (Bgm.-Smidt-Straße),33,0,0,-36,0
2024-04-01,13:00:51,noon,2,13,1,Monday,1,1,12:06:00,26,53,Überseestadt,9013704,Bremen Am Wall,34,0,0,41,41
2024-04-01,13:00:51,noon,2,13,1,Monday,1,1,12:06:00,26,53,Überseestadt,9013925,Bremen Hauptbahnhof,35,0,0,56,31
2024-04-01,13:00:51,noon,2,13,1,Monday,1,1,12:06:00,26,53,Überseestadt,9013804,Bremen Bürgerpark,37,1,1,62,62
2024-04-01,13:00:51,noon,2,13,1,Monday,1,1,12:06:00,26,53,Überseestadt,9014194,Bremen Silbermannstraße,50,0,0,32,32
2024-04-01,13:00:51,noon,2,13,1,Monday,1,1,12:06:00,26,53,Überseestadt,9103704,Bremen Ehrenfelsstraße,51,1,1,62,62
2024-04-01,13:00:51,noon,2,13,1,Monday,1,1,12:42:00,34,23,Horn,9014184,Bremen Sebaldsbrück (Bus+Tram),0,0,0,0,0
2024-04-01,13:00:51,noon,2,13,1,Monday,1,1,12:42:00,34,23,Horn,9013710,Bremen An der Kämenade,3,0,0,36,36
2024-04-01,13:00:51,noon,2,13,1,Monday,1,1,12:42:00,34,23,Horn,9014113,Bremen Heinz-Hinners-Platz,4,0,0,27,27
2024-04-01,13:00:51,noon,2,13,1,Monday,1,1,12:42:00,34,23,Horn,9013691,Bremen Am Hallacker,7,0,0,51,51
2024-04-01,13:00:51,noon,2,13,1,Monday,1,1,12:42:00,34,23,Horn,9014114,Bremen Osterholzer Landstraße,8,1,1,81,81
2024-04-01,13:00:51,noon,2,13,1,Monday,1,1,12:47:00,34,23,Sebaldsbrück,9013969,Bremen Horn (Horner Kirche),0,0,1,0,92
2024-04-01,13:00:51,noon,2,13,1,Monday,1,1,12:47:00,34,23,Sebaldsbrück,9014263,Bremen Vorstraße,1,1,1,127,127
2024-04-01,13:00:51,noon,2,13,1,Monday,1,1,12:47:00,34,23,Sebaldsbrück,9014154,Bremen Rockwinkeler Heerstraße,8,1,1,97,97
2024-04-01,13:00:51,noon,2,13,1,Monday,1,1,12:47:00,34,23,Sebaldsbrück,9014195,Bremen Simon-Hermann-Post-Weg,9,1,1,127,127
2024-04-01,13:00:51,noon,2,13,1,Monday,1,1,12:51:00,31,30,Nedderland,9013969,Bremen Horn (Horner Kirche),0,0,0,0,0
2024-04-01,13:00:51,noon,2,13,1,Monday,1,1,12:55:00,31,30,Horn,9013665,Bremen Achterdiek,0,0,1,0,74
2024-04-01,13:00:51,noon,2,13,1,Monday,1,1,12:55:00,31,30,Horn,9013944,Bremen Hermann-Frese-Straße,1,0,0,44,44
2024-04-01,13:00:51,noon,2,13,1,Monday,1,1,12:55:00,31,30,Horn,9013901,Bremen Gravestraße,2,1,1,74,74
2024-04-01,13:00:51,noon,2,13,1,Monday,1,1,12:55:00,31,30,Horn,9014089,Bremen Nedderland,3,0,0,44,44
2024-04-01,13:00:51,noon,2,13,1,Monday,1,1,12:55:00,31,30,Horn,9014052,Bremen Mackensenweg,4,1,1,74,74
2024-04-01,13:00:51,noon,2,13,1,Monday,1,1,12:42:00,55,21,Brinkum,9014155,Bremen Roland-Center,0,0,0,0,0
2024-04-01,13:00:51,noon,2,13,1,Monday,1,1,12:42:00,55,21,Brinkum,9014298,Bremen Willakedamm,1,0,0,47,47
2024-04-01,13:00:51,noon,2,13,1,Monday,1,1,12:42:00,55,21,Brinkum,9013959,Bremen Hohenhorster Weg,2,1,1,77,77
2024-04-01,13:00:51,noon,2,13,1,Monday,1,1,12:42:00,55,21,Brinkum,9014252,Bremen Varreler Landstraße,5,0,0,47,47
2024-04-01,13:00:51,noon,2,13,1,Monday,1,1,12:42:00,55,21,Brinkum,9062562,,6,1,1,77,77
2024-04-01,13:00:51,noon,2,13,1,Monday,1,1,12:42:00,55,21,Brinkum,9062563,,11,0,0,47,47
2024-04-01,13:00:51,noon,2,13,1,Monday,1,1,12:42:00,55,21,Brinkum,9088646,,12,1,1,77,77
2024-04-01,13:00:51,noon,2,13,1,Monday,1,1,12:59:00,33,25,Horn / 31 Nedderland,9014184,Bremen Sebaldsbrück (Bus+Tram),0,0,0,0,0
2024-04-01,13:00:51,noon,2,13,1,Monday,1,1,12:59:00,33,25,Horn / 31 Nedderland,9013691,Bremen Am Hallacker,7,0,0,-30,-30
2024-04-01,13:00:51,noon,2,13,1,Monday,1,1,12:59:00,33,25,Horn / 31 Nedderland,9014114,Bremen Osterholzer Landstraße,8,0,0,0,0
2024-04-01,13:00:51,noon,2,13,1,Monday,1,1,12:57:00,93,19,Gröpelingen,9013936,Bremen Marßel,0,0,0,0,6
2024-04-01,13:00:51,noon,2,13,1,Monday,1,1,12:41:00,93,19,Marßel,9013905,Bremen Gröpelingen,0,0,0,0,0
2024-04-01,13:00:51,noon,2,13,1,Monday,1,1,12:41:00,93,19,Marßel,9013816,Bremen DIAKO Bremen,2,0,0,-30,-30
2024-04-01,13:00:51,noon,2,13,1,Monday,1,1,12:41:00,93,19,Marßel,9013685,Bremen Am Fuchsberg,3,0,0,0,0
2024-04-01,13:00:51,noon,2,13,1,Monday,1,1,12:59:00,37,16,Bf Mahndorf,9014184,Bremen Sebaldsbrück (Bus+Tram),0,0,0,0,0
2024-04-01,13:00:51,noon,2,13,1,Monday,1,1,12:55:00,37,16,Sebaldsbrück,9013765,Bremen Bf Mahndorf,0,0,0,0,0
2024-04-01,13:00:51,noon,2,13,1,Monday,1,1,12:55:00,37,16,Sebaldsbrück,9013689,Bremen Am Großen Kuhkamp,1,0,0,-62,-48
2024-04-01,13:00:51,noon,2,13,1,Monday,1,1,12:55:00,37,16,Sebaldsbrück,9013755,Bremen Beim Bohnenhof,2,0,0,-48,-30
2024-04-01,13:00:51,noon,2,13,1,Monday,1,1,12:55:00,37,16,Sebaldsbrück,9013931,Bremen Heiligenbergstraße,3,0,0,0,0
2024-04-01,13:00:51,noon,2,13,1,Monday,1,1,12:55:00,37,16,Sebaldsbrück,9014115,Bremen Osterholzer Möhlendamm,5,0,0,-30,-30
2024-04-01,13:00:51,noon,2,13,1,Monday,1,1,12:55:00,37,16,Sebaldsbrück,9013690,Bremen Am Hahnenkamp,6,0,0,0,0
2024-04-01,13:00:51,noon,2,13,1,Monday,1,1,12:55:00,37,16,Sebaldsbrück,9013701,Bremen Am Siek,9,0,0,-30,-30
2024-04-01,13:00:51,noon,2,13,1,Monday,1,1,12:55:00,37,16,Sebaldsbrück,9014029,Bremen Lachmundsdamm,10,0,0,0,0
2024-04-01,13:00:51,noon,2,13,1,Monday,1,1,12:55:00,3,29,Gröpelingen,9014285,Bremen Weserwehr,0,0,0,0,0
2024-04-01,13:00:51,noon,2,13,1,Monday,1,1,12:55:00,3,29,Gröpelingen,9013963,Bremen Hohwisch,1,0,1,40,70
2024-04-01,13:00:51,noon,2,13,1,Monday,1,1,12:28:00,3,29,Weserwehr,9013905,Bremen Gröpelingen,0,0,0,0,0
2024-04-01,13:00:51,noon,2,13,1,Monday,1,1,12:28:00,3,29,Weserwehr,9013991,Bremen Kap-Horn-Straße,1,0,0,28,39
2024-04-01,13:00:51,noon,2,13,1,Monday,1,1,12:28:00,3,29,Weserwehr,9013899,Bremen Grasberger Straße,4,0,0,4,4
2024-04-01,13:00:51,noon,2,13,1,Monday,1,1,12:28:00,3,29,Weserwehr,9014267,Bremen Waller Ring,7,0,0,35,35
2024-04-01,13:00:51,noon,2,13,1,Monday,1,1,12:28:00,3,29,Weserwehr,9013844,Bremen Elisabethstraße,8,0,0,1,1
2024-04-01,13:00:51,noon,2,13,1,Monday,1,1,12:28:00,3,29,Weserwehr,9013680,Bremen Am Brill (Hutfilter-/Obernstraße),15,0,0,-50,0
2024-04-01,13:00:51,noon,2,13,1,Monday,1,1,12:28:00,3,29,Weserwehr,9014103,Bremen Obernstraße,16,0,0,-31,0
2024-04-01,13:00:51,noon,2,13,1,Monday,1,1,12:28:00,3,29,Weserwehr,9013830,Bremen Domsheide,17,0,0,-34,0
2024-04-01,13:00:51,noon,2,13,1,Monday,1,1,12:28:00,3,29,Weserwehr,9014234,Bremen Theater am Goetheplatz,18,0,0,39,39
2024-04-01,13:00:51,noon,2,13,1,Monday,1,1,12:28:00,3,29,Weserwehr,9014304,Bremen Ulrichsplatz,19,1,1,73,73
2024-04-01,13:00:51,noon,2,13,1,Monday,1,1,12:35:00,3,29,Gröpelingen,9014285,Bremen Weserwehr,0,0,0,0,0
2024-04-01,13:00:51,noon,2,13,1,Monday,1,1,12:35:00,3,29,Gröpelingen,9013890,Bremen Georg-Bitter-Straße,2,0,0,37,37
2024-04-01,13:00:51,noon,2,13,1,Monday,1,1,12:35:00,3,29,Gröpelingen,9014206,Bremen Stader Straße/Hamburger Straße,3,1,1,71,71
2024-04-01,13:00:51,noon,2,13,1,Monday,1,1,12:35:00,3,29,Gröpelingen,9014201,Bremen St.-Jürgen-Straße,6,0,0,-22,0
2024-04-01,13:00:51,noon,2,13,1,Monday,1,1,12:35:00,3,29,Gröpelingen,9013830,Bremen Domsheide,11,0,0,-49,42
2024-04-01,13:00:51,noon,2,13,1,Monday,1,1,12:35:00,3,29,Gröpelingen,9014103,Bremen Obernstraße,12,1,1,73,73
2024-04-01,13:00:51,noon,2,13,1,Monday,1,1,12:35:00,3,29,Gröpelingen,9013680,Bremen Am Brill (Hutfilter-/Obernstraße),13,1,1,73,102
2024-04-01,13:00:51,noon,2,13,1,Monday,1,1,12:35:00,3,29,Gröpelingen,9014135,Bremen Radio Bremen/VHS,14,1,1,71,71
2024-04-01,13:00:51,noon,2,13,1,Monday,1,1,12:48:00,3,29,Weserwehr,9013905,Bremen Gröpelingen,0,0,0,0,0
2024-04-01,13:00:51,noon,2,13,1,Monday,1,1,12:41:00,57,15,Bremen Roland-Center,9014155,Bremen Roland-Center,0,0,0,0,0
2024-04-01,13:00:51,noon,2,13,1,Monday,1,1,12:49:00,20,14,Hohweg,9013856,Bremen Europahafen,0,0,0,0,0
2024-04-01,13:00:51,noon,2,13,1,Monday,1,1,12:49:00,20,14,Hohweg,9014013,Bremen Konsul-Smidt-Straße,1,0,0,42,42
2024-04-01,13:00:51,noon,2,13,1,Monday,1,1,12:49:00,20,14,Hohweg,9013985,Bremen Johann-Bornemacher-Straße,2,1,1,72,72
2024-04-01,13:00:51,noon,2,13,1,Monday,1,1,12:49:00,20,14,Hohweg,9013752,Bremen Bayernstraße,9,0,0,42,42
2024-04-01,13:00:51,noon,2,13,1,Monday,1,1,12:49:00,20,14,Hohweg,9013706,Bremen Amselweg,10,1,1,72,72
2024-04-01,13:00:51,noon,2,13,1,Monday,1,1,12:50:00,40,17,Weserwehr,9013765,Bremen Bf Mahndorf,0,0,1,0,109
2024-04-01,13:00:51,noon,2,13,1,Monday,1,1,12:50:00,40,17,Weserwehr,9014010,Bremen Kluvenhagener Straße,1,1,1,151,151
2024-04-01,13:00:51,noon,2,13,1,Monday,1,1,12:50:00,40,17,Weserwehr,9013949,Bremen Hermann-Osterloh-Straße,2,1,1,183,183
2024-04-01,13:00:51,noon,2,13,1,Monday,1,1,12:50:00,40,17,Weserwehr,9014203,Bremen Stackkamp,6,1,1,153,153
2024-04-01,13:00:51,noon,2,13,1,Monday,1,1,12:50:00,40,17,Weserwehr,9013788,Bremen Brünsweg,7,1,1,183,183
2024-04-01,13:00:51,noon,2,13,1,Monday,1,1,12:46:00,25,39,Osterholz,9014278,Bremen Weidedamm-Süd,0,0,0,0,0
2024-04-01,13:00:51,noon,2,13,1,Monday,1,1,12:46:00,25,39,Osterholz,9014226,Bremen Stuttgarter Straße,1,0,0,14,14
2024-04-01,13:00:51,noon,2,13,1,Monday,1,1,12:46:00,25,39,Osterholz,9014250,Bremen Utbremer Ring,2,1,1,74,74
2024-04-01,13:00:51,noon,2,13,1,Monday,1,1,12:46:00,25,39,Osterholz,9013885,Bremen Fürther Straße,3,0,0,45,45
2024-04-01,13:00:51,noon,2,13,1,Monday,1,1,12:46:00,25,39,Osterholz,9014042,Bremen Lohmannstraße,5,0,0,-11,0
2024-04-01,13:00:51,noon,2,13,1,Monday,1,1,12:46:00,25,39,Osterholz,9013818,Bremen Daniel-von-Büren-Straße,8,1,1,92,92
2024-04-01,13:00:51,noon,2,13,1,Monday,1,1,12:46:00,25,39,Osterholz,9013925,Bremen Hauptbahnhof,16,1,0,92,0
2024-04-01,13:00:51,noon,2,13,1,Monday,1,1,12:46:00,25,39,Osterholz,9013778,Bremen Bottroper Straße,33,0,0,-30,-30
2024-04-01,13:00:51,noon,2,13,1,Monday,1,1,12:46:00,25,39,Osterholz,9013843,Bremen Einkaufszentrum Blockdiek,34,0,0,0,0
2024-04-01,13:00:51,noon,2,13,1,Monday,1,1,12:06:00,25,39,Osterholz,9014278,Bremen Weidedamm-Süd,0,0,0,0,0
2024-04-01,13:00:51,noon,2,13,1,Monday,1,1,12:06:00,25,39,Osterholz,9014226,Bremen Stuttgarter Straße,1,0,0,16,16
2024-04-01,13:00:51,noon,2,13,1,Monday,1,1,12:06:00,25,39,Osterholz,9014250,Bremen Utbremer Ring,2,0,0,46,46
2024-04-01,13:00:51,noon,2,13,1,Monday,1,1,12:06:00,25,39,Osterholz,9014042,Bremen Lohmannstraße,5,0,0,0,0
2024-04-01,13:00:51,noon,2,13,1,Monday,1,1,12:06:00,25,39,Osterholz,9013818,Bremen Daniel-von-Büren-Straße,8,0,0,40,40
2024-04-01,13:00:51,noon,2,13,1,Monday,1,1,12:06:00,25,39,Osterholz,9013832,Bremen Doventor,9,0,0,-7,0
2024-04-01,13:00:51,noon,2,13,1,Monday,1,1,12:06:00,25,39,Osterholz,9014135,Bremen Radio Bremen/VHS,10,0,0,-41,0
2024-04-01,13:00:51,noon,2,13,1,Monday,1,1,12:06:00,25,39,Osterholz,9013830,Bremen Domsheide,13,0,0,-62,0
2024-04-01,13:00:51,noon,2,13,1,Monday,1,1,12:06:00,25,39,Osterholz,9014183,Bremen Schüsselkorb,14,0,0,32,32
2024-04-01,13:00:51,noon,2,13,1,Monday,1,1,12:06:00,25,39,Osterholz,9013925,Bremen Hauptbahnhof,16,1,1,243,96
2024-04-01,13:00:51,noon,2,13,1,Monday,1,1,12:06:00,25,39,Osterholz,9014141,Bremen Rembertistraße,17,1,1,93,124
2024-04-01,13:00:51,noon,2,13,1,Monday,1,1,12:06:00,25,39,Osterholz,9013875,Bremen Friedrich-Karl-Straße,20,1,1,173,173
2024-04-01,13:00:51,noon,2,13,1,Monday,1,1,12:06:00,25,39,Osterholz,9013778,Bremen Bottroper Straße,33,1,1,143,143
2024-04-01,13:00:51,noon,2,13,1,Monday,1,1,12:06:00,25,39,Osterholz,9013843,Bremen Einkaufszentrum Blockdiek,34,1,1,173,173
2024-04-01,13:00:51,noon,2,13,1,Monday,1,1,12:59:00,25,39,Weidedamm-Süd,9014179,Bremen Schweizer Eck,0,0,0,0,0
2024-04-01,13:00:51,noon,2,13,1,Monday,1,1,12:59:00,25,39,Weidedamm-Süd,9013903,Bremen Grenzwehr,2,0,0,-30,-30
2024-04-01,13:00:51,noon,2,13,1,Monday,1,1,12:59:00,25,39,Weidedamm-Süd,9013849,Bremen Emmentaler Straße,3,0,0,0,0
2024-04-01,13:00:51,noon,2,13,1,Monday,1,1,12:59:00,25,39,Weidedamm-Süd,9013979,Bremen Im Holter Feld,9,0,0,-30,-30
2024-04-01,13:00:51,noon,2,13,1,Monday,1,1,12:59:00,25,39,Weidedamm-Süd,9013891,Bremen Georg-Gries-Straße,10,0,0,0,0
2024-04-01,13:00:51,noon,2,13,1,Monday,1,1,12:59:00,25,39,Weidedamm-Süd,9013943,Bremen Herdentor,24,0,0,-30,-30
2024-04-01,13:00:51,noon,2,13,1,Monday,1,1,12:59:00,25,39,Weidedamm-Süd,9014183,Bremen Schüsselkorb,25,0,0,0,0
2024-04-01,13:00:51,noon,2,13,1,Monday,1,1,12:26:00,25,39,Osterholz,9014135,Bremen Radio Bremen/VHS,10,0,0,-136,0
2024-04-01,13:00:51,noon,2,13,1,Monday,1,1,12:26:00,25,39,Osterholz,9013681,Bremen Am Brill (Martinistraße),11,0,0,-56,0
2024-04-01,13:00:51,noon,2,13,1,Monday,1,1,12:26:00,25,39,Osterholz,9014061,Bremen Martinistraße,12,0,0,-42,0
2024-04-01,13:00:51,noon,2,13,1,Monday,1,1,12:26:00,25,39,Osterholz,9013830,Bremen Domsheide,13,0,0,-95,0
2024-04-01,13:00:51,noon,2,13,1,Monday,1,1,12:26:00,25,39,Osterholz,9013778,Bremen Bottroper Straße,33,0,0,-30,-30
2024-04-01,13:00:51,noon,2,13,1,Monday,1,1,12:26:00,25,39,Osterholz,9013843,Bremen Einkaufszentrum Blockdiek,34,0,0,0,0
2024-04-01,13:00:51,noon,2,13,1,Monday,1,1,12:19:00,25,39,Weidedamm-Süd,9014179,Bremen Schweizer Eck,0,0,0,0,0
2024-04-01,13:00:51,noon,2,13,1,Monday,1,1,12:19:00,25,39,Weidedamm-Süd,9013903,Bremen Grenzwehr,2,0,0,-30,-30
2024-04-01,13:00:51,noon,2,13,1,Monday,1,1,12:19:00,25,39,Weidedamm-Süd,9013849,Bremen Emmentaler Straße,3,0,1,22,83
2024-04-01,13:00:51,noon,2,13,1,Monday,1,1,12:19:00,25,39,Weidedamm-Süd,9013778,Bremen Bottroper Straße,6,1,1,129,129
2024-04-01,13:00:51,noon,2,13,1,Monday,1,1,12:19:00,25,39,Weidedamm-Süd,9013947,Bremen Hermann-Koenen-Straße,7,1,1,91,91
2024-04-01,13:00:51,noon,2,13,1,Monday,1,1,12:19:00,25,39,Weidedamm-Süd,9013979,Bremen Im Holter Feld,9,1,1,99,99
2024-04-01,13:00:51,noon,2,13,1,Monday,1,1,12:19:00,25,39,Weidedamm-Süd,9013891,Bremen Georg-Gries-Straße,10,1,1,129,129
2024-04-01,13:00:51,noon,2,13,1,Monday,1,1,12:19:00,25,39,Weidedamm-Süd,9014083,Bremen Müdener Straße,14,1,1,159,159
2024-04-01,13:00:51,noon,2,13,1,Monday,1,1,12:19:00,25,39,Weidedamm-Süd,9013989,Bremen Julius-Brecht-Allee,15,1,1,124,124
2024-04-01,13:00:51,noon,2,13,1,Monday,1,1,12:19:00,25,39,Weidedamm-Süd,9014218,Bremen Steubenstraße,16,1,1,153,153
2024-04-01,13:00:51,noon,2,13,1,Monday,1,1,12:19:00,25,39,Weidedamm-Süd,9014222,Bremen Stresemannstraße,17,1,1,181,181
2024-04-01,13:00:51,noon,2,13,1,Monday,1,1,12:19:00,25,39,Weidedamm-Süd,9013875,Bremen Friedrich-Karl-Straße,19,1,1,229,229
2024-04-01,13:00:51,noon,2,13,1,Monday,1,1,12:19:00,25,39,Weidedamm-Süd,9014005,Bremen Klinikum Bremen-Mitte,20,1,1,190,190
2024-04-01,13:00:51,noon,2,13,1,Monday,1,1,12:19:00,25,39,Weidedamm-Süd,9013827,Bremen Dobbenweg,21,1,1,160,160
2024-04-01,13:00:51,noon,2,13,1,Monday,1,1,12:19:00,25,39,Weidedamm-Süd,9013925,Bremen Hauptbahnhof,23,0,0,57,31
2024-04-01,13:00:51,noon,2,13,1,Monday,1,1,12:19:00,25,39,Weidedamm-Süd,9013943,Bremen Herdentor,24,0,0,59,59
2024-04-01,13:00:51,noon,2,13,1,Monday,1,1,12:19:00,25,39,Weidedamm-Süd,9014183,Bremen Schüsselkorb,25,1,1,89,89
2024-04-01,13:00:51,noon,2,13,1,Monday,1,1,12:39:00,25,39,Weidedamm-Süd,9014179,Bremen Schweizer Eck,0,0,0,0,0
2024-04-01,13:00:51,noon,2,13,1,Monday,1,1,12:39:00,25,39,Weidedamm-Süd,9014007,Bremen Klinikum Bremen-Ost,1,0,0,29,29
2024-04-01,13:00:51,noon,2,13,1,Monday,1,1,12:39:00,25,39,Weidedamm-Süd,9013903,Bremen Grenzwehr,2,0,0,50,50
2024-04-01,13:00:51,noon,2,13,1,Monday,1,1,12:39:00,25,39,Weidedamm-Süd,9013849,Bremen Emmentaler Straße,3,1,1,98,129
2024-04-01,13:00:51,noon,2,13,1,Monday,1,1,12:39:00,25,39,Weidedamm-Süd,9013979,Bremen Im Holter Feld,9,1,1,99,99
2024-04-01,13:00:51,noon,2,13,1,Monday,1,1,12:39:00,25,39,Weidedamm-Süd,9013891,Bremen Georg-Gries-Straße,10,1,1,129,129
2024-04-01,13:00:51,noon,2,13,1,Monday,1,1,12:39:00,25,39,Weidedamm-Süd,9013925,Bremen Hauptbahnhof,23,1,0,129,0
2024-04-01,13:00:51,noon,2,13,1,Monday,1,1,12:39:00,25,39,Weidedamm-Süd,9013943,Bremen Herdentor,24,0,0,-30,-30
2024-04-01,13:00:51,noon,2,13,1,Monday,1,1,12:39:00,25,39,Weidedamm-Süd,9014183,Bremen Schüsselkorb,25,0,0,0,0
