stop_id,stop_name,stop_lat,stop_lon
9014331,Bremen-Vegesack,53.16976,8.629996
9014333,Bremen-Walle,53.103808,8.786209
9014326,Bremen-Sebaldsbrück (Zug),53.061133,8.887807
9014329,Bremen-St. Magnus,53.171574,8.669636
9014324,Bremen-Oslebshausen,53.135308,8.741053
9014325,Bremen-Schönebeck,53.172775,8.649133
9014053,Bremen Mahndorf,53.039748,8.944614
9014323,Bremen-Oberneuland,53.087177,8.937892
9013794,Bremen-Burg(Bahn),53.160602,8.704687
9014318,Bremen-Hemelingen,53.054479,8.886823
9014095,Bremen Neustadt,53.075897,8.785927
9014321,Bremen-Lesum,53.170691,8.686548
9013927,Bremen Hbf,53.083456,8.813719
9014230,Bremen Tenever,53.057509,8.962761
9014205,Bremen Stader Straße/Bismarckstraße,53.073972,8.852545
9014200,Bremen St. Joseph-Stift,53.082482,8.837204
9013895,Bremen Goldbergplatz,53.170893,8.702791
9014075,Bremen Mittelsbürener Landstraße,53.143057,8.714654
9082643,Schwanewede Am Spreeken,53.242891,8.590647
9082654,Schwanewede Hospitalstraße,53.225206,8.591855
9013816,Bremen DIAKO Bremen,53.126404,8.747009
9019789,Delmenhorst Sandhausen,53.095719,8.647627
9014287,Bremen Westerstraße,53.074474,8.794082
9013735,Bremen Bahnhof Blumenthal,53.183024,8.579728
9013906,Bremen Gustav-Heinemann-Bürgerhaus,53.17448,8.618157
9082650,Schwanewede Landhaus Schwanewede,53.23916,8.59269
9014115,Bremen Osterholzer Möhlendamm,53.057907,8.95105
9014279,Bremen Werner-Steenken-Straße,53.053257,8.962122
9014112,Bremen Osterholzer Friedhof,53.05985,8.914326
9014113,Bremen Osterholzer Heerstraße,53.059114,8.930389
9013744,Bremen Bahnhof Sebaldsbrück,53.062197,8.887576
9014184,Bremen Sebaldsbrück (Bus+Tram),53.059469,8.899647
9014005,Bremen Klinikum Bremen-Mitte,53.076869,8.837379
9013884,Bremen Föhrenstraße,53.06431,8.877295
9014282,Bremen Weserpark,53.049065,8.960619
9013968,Bremen Holzweide,53.042185,8.959171
9014122,Bremen Pappelstraße,53.069665,8.787596
9013888,Bremen Gastfeldstraße,53.066421,8.793695
9013954,Bremen Hochschule Bremen,53.072354,8.791041
9082665,Schwanewede Molkereiweg,53.231682,8.593411
9014252,Bremen Varreler Landstraße,53.036236,8.726984
9082669,Schwanewede Schützenweg,53.226292,8.594252
9065563,Neuenkirchen(Schwanewede) Marktplatz,53.23443,8.515404
9065568,Neuenkirchen(Schwanewede) Vorbruch,53.233095,8.525564
9014992,Brinkum-Nord Ochtum Park (IKEA),53.027896,8.806059
9014302,Bremen Wolfskuhlenweg,53.03943,8.814502
9014228,Bremen Tannenhof,53.175062,8.660805
9013743,Bremen Bahnhof Schönebeck,53.173747,8.648916
9013676,Bremen Am Bahnhof St. Magnus,53.174692,8.669639
9013822,Bremen Delmestraße,53.068022,8.790793
9014151,Bremen Ritterhuder Heerstraße,53.133632,8.736583
9013707,Bremen An Smidts Park,53.151844,8.7084
9014204,Bremen Stader Landstraße,53.167533,8.702409
9014219,Bremen Stockholmer Straße,53.174211,8.719675
9013893,Bremen Gerhard-Rohlfs-Straße,53.171674,8.621464
9014297,Bremen Wilhelm-Zöllig-Straße,53.186389,8.619076
9014036,Bremen Lerchenstraße,53.19083,8.618431
9014074,Bremen Milchstraße,53.192704,8.617068
9013935,Bremen Helmer,53.09924,8.862825
9013944,Bremen Hermann-Frese-Straße,53.089167,8.90423
9013680,Bremen Am Brill (Hutfilter-/Obernstraße),53.078737,8.801612
9013681,Bremen Am Brill (Martinistraße),53.078186,8.801361
9013874,Bremen Friedrich-Engels-Straße,53.050535,8.853241
9013733,Bremen BSAG-Zentrum,53.061065,8.786174
9014210,Bremen Stahlwerk Tor 3,53.130727,8.706355
9013985,Bremen Johann-Bornemacher-Straße,53.090596,8.786706
9014009,Bremen Klinikum Links der Weser,53.037377,8.822212
9014071,Bremen Messe-Zentrum,53.084496,8.816285
9014092,Bremen Neuenlander Kämpe,53.056372,8.784087
9014154,Bremen Rockwinkeler Heerstraße,53.091991,8.920181
9014222,Bremen Stresemannstraße,53.072578,8.857605
9014231,Bremen Tenever-Zentrum,53.061129,8.963829
9014237,Bremen Togostraße,53.124637,8.740288
9014293,Bremen Wilhelm-Herbst-Straße,53.111923,8.849904
9014304,Bremen Ulrichsplatz,53.072617,8.819835
9013727,Bremen Auf den Delben,53.141842,8.713751
9013770,Bremen Bollener Landstraße,53.034477,8.95256
9013797,Bremen Buschdeel,53.190115,8.543273
9013842,Bremen Eickedorfer Straße,53.092897,8.810399
9013843,Bremen Einkaufszentrum Blockdiek,53.073048,8.924736
9014079,Bremen Moorstücke,53.22748,8.511132
9065562,Neuenkirchen(Schwanewede) Landwehr,53.232616,8.513683
9013982,Bremen In der Laake,53.030451,8.845611
9014301,Bremen Witzlebenstraße,53.076859,8.90146
9014300,Bremen Wilseder-Berg-Straße,53.07319,8.879215
9014307,Bremen Ziegeleiweg,53.185773,8.637623
9014104,Bremen Oberste Kämpe,53.109801,8.882018
9013845,Bremen Ellenerbrokstraße,53.074048,8.947463
9013844,Bremen Elisabethstraße,53.09465,8.778539
9013846,Bremen Emder Straße,53.101332,8.77413
9014033,Bremen Lange Reihe,53.101724,8.778428
9014032,Bremen Landshuter Straße,53.094547,8.802868
9014039,Bremen Linzer Straße,53.10848,8.861101
9014103,Bremen Obernstraße,53.07672,8.806128
9014102,Bremen Oberneulander Heerstraße,53.102234,8.912764
9014100,Bremen Nußhorn,53.044264,8.952185
9014101,Bremen Nürnberger Straße,53.094724,8.797048
9013741,Bremen Bahnhof Oberneuland,53.08762,8.938337
9014023,Bremen Kurfürstenallee,53.082209,8.854479
9014022,Bremen Kulenkampffallee,53.09832,8.839693
9014020,Bremen Krönkeskamp,53.104354,8.816635
9014029,Bremen Lachmundsdamm,53.058804,8.94127
9014055,Bremen Malthusstraße,53.03883,8.95983
9014054,Bremen Malerstraße,53.067038,8.871854
9014052,Bremen Mackensenweg,53.090624,8.90569
9014056,Bremen Margaretenallee,53.178992,8.594592
9013952,Bremen Hexenstieg,53.037864,8.944647
9013879,Bremen Fultonstraße,53.114441,8.89599
9013738,Bremen Bahnhof Kreinsloger,53.189963,8.558304
9014046,Bremen Ludwig-Quidde-Straße,53.067635,8.862488
9013701,Bremen Am Siek,53.063183,8.943653
9013699,Bremen Am Querkamp,53.095439,8.929975
9014051,Bremen Machandelweg,53.188245,8.629329
9013702,Bremen Am Sodenmatt,53.045803,8.718782
9014315,Bremen-Blumenthal Markt,53.181419,8.573693
9013771,Bremen Borchsholt,53.18305,8.634595
9014024,Bremen Kurt-Huber-Straße,53.078187,8.911485
9013691,Bremen Am Hallacker,53.068003,8.933838
9013695,Bremen Am Kapellenberg,53.164231,8.666018
9013737,Bremen Bahnhof Farge,53.205563,8.518154
9013766,Bremen Blumenhorster Straße,53.184611,8.604506
9013973,Bremen Humboldtstraße,53.075191,8.822637
9014249,Bremen Use Akschen,53.112431,8.75212
9014248,Bremen Upsalastraße,53.176795,8.717168
9014246,Bremen Universität/Zentralbereich,53.107711,8.852383
9014285,Bremen Weserwehr,53.063491,8.867964
9013754,Bremen Bei den Drei Pfählen,53.07121,8.85063
9013975,Bremen Höpkens Ruh,53.09323,8.933031
9014242,Bremen Umspannwerk,53.107559,8.817532
9014238,Bremen Trinidadstraße,53.060028,8.893732
9014281,Bremen Werrahafen,53.051821,8.882936
9013994,Bremen Karl-Carstens-Brücke,53.054136,8.851033
9013694,Bremen Am Hulsberg,53.07233,8.842746
9013693,Bremen Am Heiddamm,53.081534,8.939615
9013692,Bremen Am Heidbergstift,53.173944,8.697446
9014298,Bremen Willakedamm,53.04704,8.738244
9014296,Bremen Wilhelm-Röntgen-Straße,53.099801,8.886046
9014295,Bremen Wilhelm-Leuschner-Straße,53.079041,8.885502
9013891,Bremen Georg-Gries-Straße,53.071526,8.891394
9013890,Bremen Georg-Bitter-Straße,53.067212,8.854328
9013889,Bremen Gemeinschaftszentrum Obervieland,53.033976,8.830721
9013713,Bremen Apfelallee,53.100023,8.902449
9013712,Bremen Anna-Stiegler-Straße,53.040765,8.828041
9013710,Bremen An der Kämenade,53.059407,8.923097
9013714,Bremen Arberger Hafendamm,53.048331,8.883638
9013753,Bremen Beckers Barg,53.167736,8.709153
9013752,Bremen Bayernstraße,53.10645,8.795886
9013750,Bremen Barbarossastraße,53.079089,8.86074
9013703,Bremen Am Stern,53.084252,8.825747
9013709,Bremen An der Amtsweide,53.192782,8.534216
9014145,Bremen Ricardostraße,53.043253,8.970069
9014143,Bremen Rhododendronpark,53.090421,8.883697
9014142,Bremen Rennplatz,53.07149,8.886515
9013732,Bremen Aumunder Kirche,53.174872,8.624136
9013729,Bremen August-Bebel-Allee,53.085724,8.873569
9014173,Bremen Schorf,53.098408,8.892991
9014262,Bremen Vorlöhnhorster Weg,53.190798,8.635381
9014259,Bremen Von-Thünen-Straße Süd,53.039666,8.965659
9014258,Bremen Von-Thünen-Straße Nord,53.046056,8.969888
9014254,Bremen Vereinsstraße,53.176364,8.606265
9014098,Bremen Nienburger Straße,53.068827,8.843751
9014251,Bremen Utbremer Straße,53.095601,8.790945
9014257,Bremen Von-Ossietzky-Straße,53.138126,8.723107
9014292,Bremen Wilhelm-Busch-Weg,53.071391,8.906545
9014291,Bremen Wilhelm-Brandhorst-Straße,53.207915,8.514131
9014289,Bremen Wiener Straße,53.106152,8.845833
9014288,Bremen Wetterungsweg,53.11197,8.820089
9014294,Bremen Wilhelm-Kaisen-Brücke,53.072125,8.803444
9013885,Bremen Fürther Straße,53.099687,8.807555
9013877,Bremen Friedrich-Stampfer-Straße,53.086218,8.891447
9013708,Bremen An den Wühren,53.103655,8.902444
9013706,Bremen Amselweg,53.108065,8.796979
9013902,Bremen Grenzstraße,53.091181,8.781796
9013673,Bremen Allerkai,53.056754,8.877859
9013672,Bremen Alfred-Faust-Straße,53.029962,8.823292
9013674,Bremen Altenescher Straße,53.110403,8.769908
9013763,Bremen Betonstraße,53.203363,8.524038
9013762,Bremen Besanstraße,53.189418,8.566792
9014140,Bremen Rekumer Siel,53.218184,8.509509
9014172,Bremen Schneverdinger Straße,53.076633,8.880817
9014170,Bremen Schlengstraße,53.049696,8.892448
9014169,Bremen Schleiermacherstraße,53.063745,8.789421
9014168,Bremen Schevemoorer Landstraße,53.077599,8.94024
9014198,Bremen Sollingstraße,53.042111,8.9124
9014195,Bremen Simon-Hermann-Post-Weg,53.090669,8.92496
9014193,Bremen Sielwall,53.07075,8.82349
9013746,Bremen Bahnhof Turnerstraße,53.193991,8.545544
9014226,Bremen Stuttgarter Straße,53.097205,8.816292
9013828,Bremen Dobbheide,53.191307,8.631397
9013827,Bremen Dobbenweg,53.078669,8.826308
9013826,Bremen Dithmarscher Freiheit,53.102444,8.799509
9013824,Bremen Dillener Park,53.188391,8.547833
9013829,Bremen Dohlenstraße,53.135314,8.73091
9013901,Bremen Gravestraße,53.090592,8.911317
9013900,Bremen Graubündener Straße,53.071396,8.949386
9013899,Bremen Grasberger Straße,53.108644,8.763679
9013905,Bremen Gröpelingen,53.120574,8.753003
9014265,Bremen Bahnhof Walle,53.102536,8.785338
9014069,Bremen Mercedes-Benz Tor 8,53.065007,8.914263
9013736,Bremen-Burg(Bus),53.16061,8.704381
9014218,Bremen Steubenstraße,53.071445,8.863627
9013823,Bremen Dietrich-Bonhoeffer-Straße,53.078614,8.903285
9013896,Bremen Goosestraße,53.110451,8.757192
9014177,Bremen Schwankhalle,53.064971,8.806553
9013894,Bremen Glockenstraße/Bf Hemelingen,53.055964,8.888368
9013897,Bremen Gottfried-Menken-Straße,53.062116,8.801724
9014087,Bremen Mülheimer Straße,53.074913,8.925897
9013711,Bremen An der Lehmkuhle,53.193711,8.566023
9014084,Bremen Mühlenfeldstraße,53.089905,8.93411
9013962,Bremen Hohweg,53.11159,8.797908
9014040,Bremen Lise-Meitner-Straße,53.103608,8.855622
9013665,Bremen Achterdiek,53.089206,8.900648
9014082,Bremen Munte,53.10478,8.840919
9013667,Bremen Agnes-Heineken-Straße,53.038759,8.832342
9013759,Bremen Berliner Freiheit,53.079384,8.893002
9013758,Bremen Bennigsenstraße,53.070355,8.856131
9013756,Bremen Beim Kleinen Tagwerk,53.09658,8.909506
9013755,Bremen Beim Bohnenhof,53.051383,8.949641
9013761,Bremen Berufsbildungswerk,53.102639,8.859212
9082657,Schwanewede Insterburger Weg,53.219785,8.589594
9014031,Bremen Landrat-Berthold-Straße,53.197066,8.571969
9014150,Bremen Ringofenstraße,53.207153,8.578497
9014305,Bremen Wätjens Park,53.17999,8.588774
9013883,Bremen Fährgrund,53.175321,8.612803
9013781,Bremen Bremer Vulkan,53.177414,8.601612
9013747,Bremen Bahnhof Vegesack,53.169621,8.627897
9014191,Bremen Senator-Theil-Straße,53.037688,8.851272
9014171,Bremen Schloßparkstraße,53.059187,8.897044
9014192,Bremen Sielhof,53.048787,8.820188
9014217,Bremen Stenumer Straße,53.054889,8.814727
9014216,Bremen Stellichter Straße,53.071641,8.882724
9013821,Bremen Deliusweg,53.089179,8.892313
9013820,Bremen Delfter Straße,53.043866,8.723196
9013840,Bremen Egestorff-Stiftung,53.057474,8.954588
9013838,Bremen Düsseldorfer Straße,53.073339,8.930294
9013836,Bremen Duckwitzstraße,53.065002,8.779216
9013835,Bremen Hüttenhafen,53.131649,8.722021
9013841,Bremen Eggestedter Straße,53.191589,8.561986
9013861,Bremen Findorffallee,53.090284,8.813487
9013859,Bremen Fellendsweg,53.051538,8.839582
9014135,Bremen Radio Bremen/VHS,53.080968,8.796789
9013881,Bremen Fähre Farge,53.199224,8.526993
9014081,Bremen Morsumer Straße,53.02783,8.818821
9014078,Bremen Moorstraße,53.11303,8.764801
9013687,Bremen Am Geestkamp,53.147399,8.711405
9013685,Bremen Am Fuchsberg,53.129774,8.743113
9014083,Bremen Müdener Straße,53.074036,8.875811
9013689,Bremen Am Großen Kuhkamp,53.048153,8.950356
9013684,Bremen Am Fillerkamp,53.198973,8.5539
9014152,Bremen Robert-Koch-Straße,53.043,8.824685
9014157,Bremen Rosenpfad,53.058651,8.812935
9014234,Bremen Theater am Goetheplatz,53.072382,8.816868
9014283,Bremen Weserpark-Süd,53.046294,8.957571
9014236,Bremen Theodor-Heuss-Allee,53.088125,8.808212
9014012,Bremen Knoops Park,53.165632,8.67699
9014010,Bremen Kluvenhagener Straße,53.038307,8.939628
9014004,Bremen Kleine Marschstraße,53.040635,8.883995
9014227,Bremen Süntelstraße,53.039767,8.908775
9014243,Bremen Universität-Nord,53.11064,8.854691
9014003,Bremen Kirchweg,53.062306,8.810167
9013999,Bremen Kattenturm-Mitte,53.035323,8.826916
9013832,Bremen Doventor,53.083948,8.797781
9013831,Bremen Dortmunder Straße,53.059135,8.778001
9013833,Bremen Doventorsteinweg,53.085002,8.799072
9013882,Bremen Fährer Kämpe,53.184281,8.613111
9013880,Bremen Fähre Blumenthal,53.183148,8.562472
9013854,Bremen Betriebshof Blumenthal,53.193581,8.56044
9013858,Bremen Falkenstraße,53.082733,8.806914
9014163,Bremen Rönnebecker Straße,53.185739,8.555946
9014015,Bremen Krefelder Straße,53.071128,8.929917
9014019,Bremen Krimpelweg,53.043223,8.816081
9013804,Bremen Bürgerpark,53.086686,8.818236
9013796,Bremen Burgdammer Ring,53.169682,8.712631
9013799,Bremen Busestraße,53.094999,8.837678
9013875,Bremen Friedrich-Karl-Straße,53.075347,8.844205
9013872,Bremen Friedhof Huckelriede,53.050376,8.828599
9013876,Bremen Friedrich-Mißler-Straße,53.08715,8.871199
9014149,Bremen Riespot,53.129117,8.711446
9014148,Bremen Riensberg,53.096659,8.853667
9014147,Bremen Riedemannstraße,53.135024,8.715458
9014007,Bremen Klinikum Bremen-Ost,53.066199,8.943872
9013793,Bremen Burger Dorfstraße,53.155015,8.70459
9013791,Bremen Bulthauptstraße,53.088359,8.832825
9013788,Bremen Brünsweg,53.044354,8.897381
9013869,Bremen Fresenbergstraße,53.18387,8.573123
9013863,Bremen Flughafen,53.053572,8.785182
9013871,Bremen Friedhof Huchting,53.038981,8.728576
9014202,Bremen St.-Magnus-Straße,53.092578,8.784457
9014201,Bremen St.-Jürgen-Straße,53.070832,8.833699
9014166,Bremen Sandkuhlenweg,53.225303,8.510034
9013949,Bremen Hermann-Osterloh-Straße,53.039052,8.932274
9013947,Bremen Hermann-Koenen-Straße,53.071088,8.916126
9013946,Bremen Hermann-Helms-Straße,53.033495,8.850653
9013945,Bremen Hermann-Funk-Straße,53.056807,8.880991
9013818,Bremen Daniel-von-Büren-Straße,53.084905,8.803072
9013780,Bremen Brandenburger Straße,53.082128,8.867423
9013786,Bremen Brunnenstraße,53.072248,8.82864
9014162,Bremen Ruppertshainer Straße,53.044297,8.922371
9014160,Bremen Rotterdamer Straße,53.040909,8.731048
9014159,Bremen Rotes-Kreuz-Krankenhaus,53.067584,8.802223
9014158,Bremen Rotdornallee,53.173313,8.688119
9014165,Bremen Saarstraße,53.059599,8.90939
9013942,Bremen Herbststraße,53.090874,8.805639
9013941,Bremen Herbartstraße,53.188459,8.640607
9013764,Bremen Bf Klinikum Bremen-Nord,53.183616,8.595786
9014121,Bremen Panrepel-Süd,53.042473,8.961146
9014120,Bremen Panrepel-Nord,53.045949,8.965827
9014118,Bremen Otto-Braun-Straße,53.086101,8.886604
9014123,Bremen Parkallee,53.099188,8.837012
9013963,Bremen Hohwisch,53.066139,8.860588
9013959,Bremen Hohenhorster Weg,53.044809,8.736153
9013965,Bremen Holsteiner Straße,53.103246,8.794121
9013984,Bremen Jadestraße,53.104172,8.769148
9013987,Bremen Joseph-Haydn-Straße,53.087351,8.837268
9013814,Bremen Crüsemannallee,53.091492,8.834986
9013813,Bremen Ermlandstraße,53.196601,8.549472
9013811,Bremen Colshornstraße,53.038246,8.925009
9013980,Bremen Im Holze,53.099087,8.921967
9013979,Bremen Im Holter Feld,53.071527,8.902785
9013864,Bremen Flughafen-Süd,53.050555,8.789792
9013807,Bremen Carl-Hurtzig-Straße,53.055035,8.739491
9013806,Bremen Carl-Goerdeler-Straße,53.079302,8.896774
9013805,Bremen Campingplatz,53.115035,8.833152
9013810,Bremen Christernstraße,53.054497,8.894109
9013778,Bremen Bottroper Straße,53.071947,8.920571
9013777,Bremen Borgwardstraße,53.045739,8.844893
9013779,Bremen Brahmsstraße,53.085909,8.831126
9013995,Bremen Karl-Peters-Straße,53.095457,8.782206
9013993,Bremen Karl-Bröger-Straße,53.124857,8.7489
9013725,Bremen Auf dem Pasch,53.167455,8.685111
9013724,Bremen Auf dem Krümpel,53.173164,8.640018
9013721,Bremen Ascherfeld,53.178477,8.624792
9013728,Bremen Auf der Sandhöhe,53.080088,8.709937
9014116,Bremen Osterhop,53.052712,8.8993
9014114,Bremen Osterholzer Landstraße,53.074053,8.936052
9014117,Bremen Ostwaldstraße,53.111033,8.892938
9013958,Bremen Hohenesch,53.21337,8.511061
9014132,Bremen Poggenburg,53.065226,8.932828
9014131,Bremen Piependamm,53.041519,8.850432
9013918,Bremen Hansator,53.089025,8.784695
9013917,Bremen Hannoversche Straße,53.055731,8.884861
9013916,Bremen Hanfstraße,53.191441,8.53842
9013914,Bremen Hakenwehrstraße,53.189758,8.571367
9013919,Bremen Hansestraße,53.091659,8.791314
9014133,Bremen Polizeipräsidium,53.079174,8.878882
9013988,Bremen Helene-Lange-Straße,53.050944,8.836268
9013992,Bremen Kapitän-König-Weg,53.101114,8.916252
9013718,Bremen Arster Kirche,53.030817,8.850603
9013951,Bremen Heukämpendamm,53.032453,8.838985
9013715,Bremen Arensburgstraße,53.078505,8.855109
9014306,Bremen Wätjenstraße,53.094811,8.850289
9014274,Bremen Wasserturm,53.186622,8.572564
9014271,Bremen Wartburgstraße,53.093473,8.788962
9014278,Bremen Weidedamm-Süd,53.096293,8.819184
9013785,Bremen Bruchhauser Straße,53.039086,8.834853
9013679,Bremen Am Brill (Bgm.-Smidt-Straße),53.078676,8.799969
9013971,Bremen Huckelriede,53.051804,8.819524
9014299,Bremen Willigstraße,53.059,8.80887
9013730,Bremen August-Hinrichs-Straße,53.060767,8.804383
9013704,Bremen Am Wall,53.080303,8.803852
9014014,Bremen Kopernikusstraße,53.109036,8.887189
9013817,Bremen Daniel-Jacobs-Allee,53.123781,8.900069
9013719,Bremen Arster Landstraße,53.028031,8.849956
9013717,Bremen Arster Hemm,53.024278,8.859401
9055739,Lilienthal Kutscher Behrens,53.15378,8.938184
9055734,Lilienthal Feldhäuser Straße,53.140108,8.905269
9014197,Bremen Solinger Straße,53.061769,8.773826
9014245,Bremen Universität-Süd,53.105197,8.850888
9055746,Lilienthal Trupe,53.138093,8.899341
9013768,Bremen Blumenthalstraße,53.083615,8.817761
9013720,Bremen Arsterdamm,53.046718,8.818351
9055743,Lilienthal Schoofmoor,53.153603,8.92211
9055729,Lilienthal Auf dem Kamp,53.154675,8.927243
9055728,Lilienthal,53.15833,8.945083
9013920,Bremen Harriersand,53.057678,8.728489
9013789,Bremen Brüsseler Straße,53.056144,8.716162
9014196,Bremen Soester Straße,53.034094,8.81067
9013936,Bremen Marßel,53.178579,8.724093
9014068,Bremen Mercedes-Benz Tor 7,53.062863,8.913942
9014155,Bremen Roland-Center,53.048336,8.741268
9014130,Bremen Philipp-Scheidemann-Straße,53.085865,8.879448
9013913,Bremen Haferwende,53.111887,8.878577
9013912,Bremen Haferkamp,53.08831,8.793641
9013910,Bremen Habenhauser Brückenstraße,53.050319,8.847649
9013991,Bremen Kap-Horn-Straße,53.115668,8.752608
9013989,Bremen Julius-Brecht-Allee,53.07467,8.869481
9013907,Bremen Gustavstraße,53.098159,8.788665
9013909,Bremen H.-H.-Meier-Allee,53.088944,8.842264
9014268,Bremen Waller Straße,53.106042,8.778567
9014267,Bremen Waller Ring,53.098533,8.776565
9014266,Bremen Waller Friedhof,53.108328,8.773632
9014059,Bremen Martin-Buber-Straße,53.035341,8.841133
9014057,Bremen Marschstraße,53.047316,8.892916
9014129,Bremen Pfarrfeldsweg,53.045353,8.851022
9014097,Bremen Neuwieder Straße,53.066796,8.96154
9014099,Bremen Norderländer Straße,53.058464,8.758757
9013933,Bremen Heisiusstraße,53.039044,8.916285
9013932,Bremen Heinrich-Hertz-Straße,53.082918,8.874987
9013931,Bremen Heiligenbergstraße,53.053487,8.953382
9013937,Bremen Helsingborger Straße,53.178584,8.71919
9013903,Bremen Grenzwehr,53.068245,8.938981
9014090,Bremen Neue Vahr Nord,53.086163,8.896131
9014214,Bremen Stehnckenshoff,53.168762,8.695165
9014211,Bremen Staustraße,53.04662,8.859413
9014076,Bremen Mittelshuchtinger Dorfstraße,53.056921,8.72305
9014077,Bremen Modersohnweg,53.094139,8.914759
9014207,Bremen Stadtwaldsee,53.114889,8.837954
9014073,Bremen Meyerstraße,53.064636,8.797028
9014126,Bremen Paul-Feller-Straße,53.055847,8.795915
9014089,Bremen Nedderland,53.092271,8.909687
9014088,Bremen Nauheimer Straße,53.044673,8.915057
9014093,Bremen Neuenlander Straße,53.066911,8.782459
9013925,Bremen Hauptbahnhof,53.081776,8.813177
9013851,Bremen Eppenhainer Straße,53.041521,8.931657
9013850,Bremen Engadiner Straße,53.066433,8.95569
9013849,Bremen Emmentaler Straße,53.069544,8.93453
9013847,Bremen Emmastraße,53.091346,8.845645
9013853,Bremen Erkelenzer Straße,53.077937,8.920951
9014310,Bremen Zum Kränholm,53.172469,8.67981
9014309,Bremen Zum Huchtinger Bahnhof,53.05814,8.735178
9014308,Bremen Zum Donaufleet,53.181632,8.567805
9014179,Bremen Schweizer Eck,53.064785,8.949679
9014206,Bremen Stader Straße/Hamburger Straße,53.068065,8.84893
9014203,Bremen Stackkamp,53.040671,8.904561
9014043,Bremen Loignystraße,53.082555,8.860005
9014049,Bremen Löhstraße,53.184836,8.59781
9014042,Bremen Lohmannstraße,53.09316,8.803987
9014041,Bremen Lloydstraße,53.086265,8.790106
9014109,Bremen Oslebshauser Landstraße,53.128701,8.729345
9014107,Bremen Ohmstraße,53.109118,8.891121
9014105,Bremen Obervielander Straße,53.051864,8.740732
9014106,Bremen Oewerweg,53.062134,8.931654
9014988,Brinkum(Stuhr) IKEA/Marktkauf,53.027399,8.802063
9014136,Bremen Rastenburger Straße,53.21403,8.583092
9013830,Bremen Domsheide,53.074432,8.80898
9014183,Bremen Schüsselkorb,53.077171,8.810675
9014141,Bremen Rembertistraße,53.080648,8.818683
9013683,Bremen Am Dobben,53.078596,8.823672
9014124,Bremen Parkstraße,53.079946,8.827942
9013964,Bremen Hollerallee,53.081271,8.831918
9014072,Bremen Metzer Straße,53.083254,8.842119
9014001,Bremen Kirchbachstraße,53.085023,8.849847
9013873,Bremen Friedhofstraße,53.088764,8.856269
9013866,Bremen Focke-Museum,53.090232,8.862913
9013803,Bremen Bürgermeister-Spitta-Allee,53.09124,8.871132
9013969,Bremen Horn (Horner Kirche),53.096627,8.870274
9014263,Bremen Vorstraße,53.101379,8.874424
9013970,Bremen Horner Mühle,53.101463,8.880136
9014280,Bremen Werner-von-Siemens-Straße,53.105213,8.884023
9014128,Bremen Peter-Henlein-Straße,53.113018,8.891596
9013697,Bremen Am Lehester Deich,53.118618,8.897191
9013957,Bremen Hohenbuchener Straße,53.21098,8.579634
9014239,Lilienthal Truperdeich,53.135267,8.898558
9013974,Bremen Höger Weg,53.115513,8.894018
9013769,Bremen Bockhorner Weg,53.192655,8.574816
9014060,Bremen Martin-Luther-Straße,53.188353,8.577122
9014213,Bremen Steenkuhlenweg,53.202561,8.571028
9013929,Bremen Hegeweg,53.20506,8.574616
9013739,Bremen Bahnhof Lesum,53.171129,8.684687
9013751,Bremen Bardenflethstraße,53.060398,8.765164
9014253,Bremen Verdunstraße,53.081052,8.843632
9013865,Bremen Flämische Straße,53.052665,8.715193
9014241,Bremen Twiedelftsweg,53.029071,8.838006
9013783,Bremen Brenningstraße,53.037378,8.837386
9014322,Bremen-Lesum Kirche,53.169581,8.688774
9014008,Bremen Klinikum Haupteingang,53.036445,8.817585
9013773,Bremen Borgfeld,53.127033,8.898829
9013795,Bremen Burgdammer Postweg,53.175454,8.706396
9014277,Bremen Weidedamm-Nord,53.099911,8.820266
9013998,Bremen Kattenescher Weg,53.030449,8.81252
9014212,Bremen Stedinger Brücke,53.094546,8.6664
9014048,Bremen Luley,53.088707,8.674244
9014215,Bremen Stellfeldsweg,53.086236,8.690978
9014330,Bremen-Strom Schule,53.083275,8.701513
9014026,Bremen Köhler Brücke,53.076718,8.722993
9013749,Bremen Bakeweg,53.092162,8.7508
9014153,Bremen Roccoweg,53.094408,8.748123
9014290,Bremen Wildeshauser Straße,53.082939,8.768963
9014134,Bremen Rablinghausen,53.096063,8.746105
9013939,Bremen Hemmstraße,53.094805,8.80845
9014250,Bremen Utbremer Ring,53.098252,8.812582
9013983,Bremen Innsbrucker Straße,53.101476,8.814684
9014161,Bremen Rudolf-Alexander-Schröder-Straße,53.100837,8.817501
9013961,Bremen Hohentorsplatz,53.072895,8.788779
9013740,Bremen Bahnhof Neustadt,53.075635,8.784052
9013972,Bremen Huder Straße,53.079615,8.776158
9013837,Bremen Dötlinger Straße,53.081692,8.772089
9014137,Bremen Rechtenflether Straße,53.084331,8.766262
9014303,Bremen Woltmershauser Friedhof,53.087386,8.76182
9014224,Bremen Stromer Straße,53.088699,8.7536
9014094,Bremen Neuer Schutzdeich,53.085894,8.752739
9014096,Bremen Neustädter Hafen,53.088685,8.744386
9014011,Bremen Klärwerk,53.110187,8.716313
9014328,Bremen-Seehausen Schule,53.110894,8.709551
9014108,Bremen Ortsamt Seehausen,53.11568,8.704411
9014018,Bremen Kriegerdenkmal,53.116712,8.700237
9013923,Bremen Hasenbüren Hagens,53.116538,8.697117
9013688,Bremen Am Glockenstein,53.116764,8.690902
9014225,Bremen Stumper,53.116457,8.683115
9014286,Bremen Wessels,53.117578,8.678985
9013924,Bremen Hasenbürener Deich,53.119649,8.674182
9013922,Bremen Hasenbüren,53.120653,8.671538
9013908,Bremen Güterbahnhof Grolland,53.0795,8.741807
9014223,Bremen Stromer Berg,53.079807,8.73703
9014045,Bremen Ludwig-Erhard-Straße,53.081246,8.730619
9013886,Bremen GVZ-Verkehrsgewerbe Ost,53.083494,8.723576
9013887,Bremen GVZ-Zentralbereich,53.085385,8.717639
9014187,Bremen Senator-Harmssen-Straße,53.087546,8.711909
9013671,Bremen Albert-Bote-Straße,53.090322,8.704472
9013852,Bremen Erich-Kühlmann-Straße,53.094089,8.699587
9014188,Bremen Senator-Mester-Straße,53.094537,8.709992
9014085,Bremen Mühlenhauser Fleet,53.097927,8.718535
9013669,Bremen Akazienstraße,53.078266,8.780314
9014038,Bremen Lindenhofstraße,53.11603,8.758874
9013716,Bremen Arsten,53.027637,8.837534
9014125,Bremen Parsevalstraße,53.067143,8.887862
9014208,Bremen Stahlwerk Tor 1,53.138303,8.714133
9014284,Bremen wohninvest WESERSTADION,53.068875,8.837671
9013682,Bremen Am Dammacker,53.055968,8.815154
9014317,Bremen-Farge Fähranleger,53.198499,8.518854
9014314,Bremen-Blumenthal Fähranleger,53.181835,8.560894
9014332,Bremen-Vegesack Fähranleger,53.168582,8.622395
9014994,Brinkum(Stuhr) Schule Brunnenweg,53.005347,8.776305
9014981,Brinkum(Stuhr) Am Bahnhof,53.014159,8.784592
9014991,Brinkum(Stuhr) Magdeburger Straße,53.014614,8.777611
9014995,Brinkum(Stuhr) Schule Feldstraße,53.011508,8.786621
9014047,Bremen Ludwig-von-Kapff-Straße,53.03218,8.885225
9014269,Bremen Walther-Jacobs-Straße,53.034791,8.885128
9014091,Bremen Neuenkirchener Weg,53.201683,8.560562
9014027,Bremen Köhlhorster Straße,53.199311,8.563063
9014261,Bremen Vorberger Straße,53.19698,8.565518
9082647,Schwanewede Dreienkamp,53.222271,8.599175
9082648,Schwanewede Eichengrund,53.224913,8.59921
9082642,Schwanewede Am Markt,53.22186,8.59456
9013966,Bremen Holthorster Weg,53.17346,8.675907
9013943,Bremen Herdentor,53.079642,8.810039
9013767,Bremen Blumenkamp,53.168617,8.661512
9014146,Bremen Richthofenstraße,53.163958,8.661774
9013862,Bremen Finkenschlag,53.163568,8.657023
9014229,Bremen Taunusstraße,53.164271,8.651447
9014185,Bremen Seefahrtstraße,53.16492,8.646217
9014181,Bremen Schönebecker Straße,53.166745,8.637522
9013904,Bremen Grohn-Markt,53.167045,8.631187
9013731,Bremen Aumunder Heide,53.178094,8.618798
9013734,Bremen Bahnhof Aumund,53.183713,8.618878
9013808,Bremen Carsten-Dreßler-Straße,53.033829,8.844585
9014235,Bremen Theater am Leibnizplatz,53.069659,8.79909
9013698,Bremen Am Neuen Markt,53.072836,8.799535
9013776,Bremen Borgfeld-Ost,53.119653,8.912811
9013670,Bremen Albert-Bischof-Straße,53.117864,8.906101
9013802,Bremen Bürgermeister-Kaisen-Allee,53.120951,8.899986
9014061,Bremen Martinistraße,53.076764,8.803639
9014044,Bremen Louise-Böhm-Weg,53.118985,8.908503
9014182,Bremen Schöpfwerk,53.101872,8.671316
9014144,Bremen Ricarda-Huch-Straße,53.101558,8.816116
9014175,Bremen Schulzentrum Lerchenstraße,53.192248,8.627739
9013955,Bremen Hochschule für Künste,53.097677,8.76963
9013848,Bremen Emmastraße/Bürgerpark,53.094535,8.833433
9013668,Bremen Ahrensstraße,53.086041,8.747544
9013800,Bremen Busestraße/Bürgerpark,53.097139,8.835355
9013892,Bremen Georg-Henschel-Straße,53.087941,8.736353
9014189,Bremen Senator-Nolting-Hauff-Straße,53.099729,8.704085
9013722,Bremen Auf dem Bockhorn,53.213053,8.585265
9014063,Bremen Martinshof Aumund,53.181932,8.630764
9013809,Bremen Celsiusstraße,53.109664,8.848001
9014021,Bremen Kuhgrabenweg,53.113815,8.844014
9065559,Neuenkirchen(Schwanewede) Ahnten,53.234221,8.521228
9013978,Bremen Im Achterkamp,53.089569,8.901573
9014186,Bremen Senator-Blase-Straße,53.095638,8.716275
9013926,Bremen Hauptbahnhof (ZOB Breitenweg),53.082317,8.810391
9013856,Bremen Europahafen,53.085069,8.779888
9013839,Bremen Eduard-Schopf-Allee,53.083004,8.787187
9013760,Bremen Bernauer Straße,53.109519,8.801574
9013782,Bremen Bremervörder Straße,53.098093,8.780528
9013815,Bremen Cuxhavener Straße,53.100178,8.773812
9014221,Bremen Straubinger Straße,53.111546,8.799765
9014232,Bremen Teneverstraße,53.057895,8.963148
9013812,Bremen Cornelius-Edzard-Straße,53.054019,8.791086
9013742,Bremen Bahnhof Oslebshausen,53.135019,8.740205
9013898,Bremen Gottlieb-Daimler-Straße,53.139979,8.701704
9014209,Bremen Stahlwerk Tor 2,53.142393,8.693072
9014312,Bremen-Aumund,53.185195,8.617492
9014006,Bremen Klinikum Bremen-Nord/Beckedorf,53.185269,8.595141
9014313,Bremen-Blumenthal,53.183642,8.581215
9014086,Bremen Mühlenstraße,53.18521,8.57134
9014016,Bremen Kreinsloger,53.188782,8.557846
9014240,Bremen Turnerstraße,53.193225,8.545346
9014316,Bremen-Farge,53.205202,8.516538
9013757,Bremen Belmerstraße,53.052039,8.894824
9013855,Bremen Europaallee/Autohof,53.033943,8.891078
9013867,Bremen Franz-Stickan-Straße,53.089813,8.723032
9014013,Bremen Konsul-Smidt-Straße,53.087363,8.782517
9014275,Bremen Wasserweg,53.196219,8.531245
9013723,Bremen Auf dem Flintacker,53.188963,8.634641
9014247,Bremen Unterführung B75,53.062201,8.771863
9013705,Bremen Am Winterhafen,53.100743,8.763918
9014194,Bremen Silbermannstraße,53.098142,8.76115
9014190,Bremen Senator-Paulmann-Straße,53.070326,8.775482
9014272,Bremen Warturmer Heerstraße,53.072562,8.769577
9014256,Bremen Visbeker Straße,53.075759,8.761682
9014176,Bremen Schuppen 1,53.089847,8.77721
9013976,Bremen Hüttenstraße Süd,53.126482,8.713954
9014244,Bremen Universität-Ost,53.10661,8.863862
9014311,Bremen Überseetor,53.094724,8.771681
9055742,Lilienthal Moorhauser Landstraße,53.147355,8.912158
9014139,Bremen Reedeich-Nord,53.081578,8.755375
9013784,Bremen Bromberger Straße,53.121091,8.761499
9014178,Bremen Schwarzer Weg,53.12581,8.757589
9014273,Bremen Wasserhorster Straße,53.124666,8.760703
9013915,Bremen Halmerweg,53.120739,8.76058
9013990,Bremen Kalischer Straße,53.118385,8.765532
9013819,Bremen De Kreienbarg,53.211112,8.512503
9014260,Bremen Vor den Wischen,53.223023,8.508864
9013825,Bremen Dirschauer Straße,53.116773,8.768244
9013981,Bremen In den Barken,53.114141,8.77
9013690,Bremen Am Hahnenkamp,53.062489,8.950732
9013868,Bremen Fraunhoferstraße,53.116251,8.899534
9013798,Bremen Buschdeel/Wendeplatz,53.190443,8.542791
9013765,Bremen Bf Mahndorf,53.039958,8.944274
9013772,Bremen Bordeaux-Straße,53.03596,8.901992
9014028,Bremen La-Rochelle-Straße,53.033155,8.899999
9014034,Bremen Lankenauer Höft,53.108639,8.740862
9055740,Lilienthal Lilienthal-Mitte,53.143206,8.908811
9013977,Bremen Ikensdamm,53.085305,8.932633
9013956,Bremen Hochschulring,53.106527,8.862167
9014037,Bremen Lesum Park,53.173868,8.681091
9013996,Bremen Kaspar-Ohm-Straße,53.184183,8.626388
9014062,Bremen Martinsheide,53.183005,8.626053
9103705,Bremen Fuldahafen,53.045253,8.883854
9103704,Bremen Ehrenfelsstraße,53.100322,8.757581
9103706,Bremen Überseestadt-Nord,53.102166,8.754545
9106164,Bremen Ludwig-Sütterlin-Straße,53.085791,8.907654
9097791,Bremen Segelsbrück,53.058651,8.897149
9020600,Bremen Bergener Straße,53.031468,8.903186
9020610,Bremen Europaallee-Ost,53.030228,8.90886
9091820,Bremen Marcuskaje,53.094487,8.767481
9091830,Bremen Schuppen 3,53.09244,8.773434
9073100,Schwanewede Zum Marktplatz,53.22268,8.592843
9089009,Bremen PIER 2/Waterfront (Fähranleger),53.107882,8.750016
9089010,Bremen Molenturm Überseestadt (Fähranleger),53.104525,8.750246
9001281,Bremen Schlehenweg,53.050084,8.857481
9001282,Bremen Fontanestraße,53.050385,8.843288
9007675,Bremen Stromer Landstraße,53.082081,8.751472
9071101,Bremen Am Gaswerkgraben,53.076707,8.776059
9081130,Bremen Auf dem Bohnenkamp,53.078226,8.771448
9097111,Bremen Am Tabakquartier,53.07685,8.768874
9079301,Bremen Alter Schutzdeich,53.074508,8.765604
9017513,Brinkum(Stuhr) Marktplatz,53.010794,8.788817
